country,city,lat,lng,,,,,,,,,
Kosovo,Malishevë,42.4822,20.7458,,,,,,,,,
Kosovo,Prizren,42.2139,20.7397,,,,,,,,,
Kosovo,Zubin Potok,42.9144,20.6897,,,,,,,,,
Kosovo,Kamenicë,42.5781,21.5803,,,,,,,,,
Kosovo,Viti,42.3214,21.3583,,,,,,,,,
Kosovo,Shtërpcë,42.2394,21.0272,,,,,,,,,
Kosovo,Shtime,42.4331,21.0397,,,,,,,,,
Kosovo,Vushtrri,42.8231,20.9675,,,,,,,,,
Kosovo,Dragash,42.0265,20.6533,,,,,,,,,
Kosovo,Podujevë,42.9111,21.1899,,,,,,,,,
Kosovo,Fushë Kosovë,42.6639,21.0961,,,,,,,,,
Kosovo,Kaçanik,42.2319,21.2594,,,,,,,,,
Kosovo,Klinë,42.6217,20.5778,,,,,,,,,
Kosovo,Leposaviq,43.1039,20.8028,,,,,,,,,
Kosovo,Pejë,42.66,20.2922,,,,,,,,,
Kosovo,Rahovec,42.3994,20.6547,,,,,,,,,
Kosovo,Gjilan,42.4689,21.4633,,,,,,,,,
Kosovo,Lipjan,42.5217,21.1258,,,,,,,,,
Kosovo,Obiliq,42.6869,21.0703,,,,,,,,,
Kosovo,Gjakovë,42.3803,20.4308,,,,,,,,,
Kosovo,Pristina,42.6666,21.1724,,,,,,,,,
Kosovo,Deçan,42.5378,20.2911,,,,,,,,,
Kosovo,Istog,42.7808,20.4875,,,,,,,,,
Kosovo,Hani i Elezit,42.15,21.2967,,,,,,,,,
Kosovo,Junik,42.4758,20.2772,,,,,,,,,
Kosovo,Kllokot,42.3714,21.3744,,,,,,,,,
Kosovo,Mamushë,42.3308,20.7269,,,,,,,,,
Kosovo,Partesh,42.4019,21.4336,,,,,,,,,
Kosovo,Ranillug,42.4922,21.5989,,,,,,,,,
Kosovo,Ferizaj,42.3706,21.1553,,,,,,,,,
Kosovo,Zveçan,42.9075,20.8403,,,,,,,,,
Kosovo,Suharekë,42.3586,20.825,,,,,,,,,
Kosovo,Gllogovc,42.6283,20.8939,,,,,,,,,
Kosovo,Mitrovicë,42.8833,20.8667,,,,,,,,,
Kosovo,Skenderaj,42.7467,20.7886,,,,,,,,,
Kosovo,Novobërdë,42.6178,21.4197,,,,,,,,,
Kosovo,Graçanicë,42.6011,21.1958,,,,,,,,,
Svalbard,Longyearbyen,78.2167,15.6333,,,,,,,,,
West Bank,Al Quds,31.7764,35.2269,,,,,,,,,
Yemen,Sanaa,15.3547,44.2066,,,,,,,,,
Yemen,Marib,15.421,45.334,,,,,,,,,
Yemen,Al Jabīn,14.704,43.599,,,,,,,,,
Yemen,Hajjah,15.6917,43.6021,,,,,,,,,
Yemen,Ibb,13.9759,44.1709,,,,,,,,,
Yemen,Al Hudaydah,14.7979,42.953,,,,,,,,,
Yemen,Lahij,13.0582,44.8838,,,,,,,,,
Yemen,Al Maḩwīt,15.4701,43.5448,,,,,,,,,
Yemen,Taizz,13.6045,44.0394,,,,,,,,,
Yemen,Sadah,16.9398,43.8498,,,,,,,,,
Yemen,Dhamar,14.5575,44.3875,,,,,,,,,
Yemen,‘Amrān,15.6594,43.9439,,,,,,,,,
Yemen,Aḑ Ḑāli‘,13.6957,44.7314,,,,,,,,,
Yemen,Saywun,15.943,48.7873,,,,,,,,,
Yemen,Al Bayda,13.979,45.574,,,,,,,,,
Yemen,Zinjibār,13.1287,45.3807,,,,,,,,,
Yemen,Rida,14.4295,44.8341,,,,,,,,,
Yemen,'Ataq,14.55,46.8,,,,,,,,,
Yemen,Al Ghaydah,16.2394,52.1638,,,,,,,,,
Yemen,Sayhut,15.2105,51.2454,,,,,,,,,
Yemen,Al Mukalla,14.5412,49.1259,,,,,,,,,
Yemen,Al Ḩazm,16.1641,44.7769,,,,,,,,,
Yemen,Zabīd,14.1951,43.3155,,,,,,,,,
Yemen,Aden,12.7797,45.0095,,,,,,,,,
Yemen,Hadiboh,12.6519,54.0239,,,,,,,,,
Yemen,Ash Shihr,14.7593,49.6092,,,,,,,,,
Mayotte,Dzaoudzi,-12.7871,45.275,,,,,,,,,
South Africa,Lebowakgomo,-24.1996,29.5,,,,,,,,,
South Africa,Potchefstroom,-26.6996,27.1,,,,,,,,,
South Africa,Graaff Reinet,-32.3,24.54,,,,,,,,,
South Africa,Rustenburg,-25.65,27.24,,,,,,,,,
South Africa,Brandfort,-28.6996,26.47,,,,,,,,,
South Africa,Vryheid,-27.76,30.79,,,,,,,,,
South Africa,Vereeniging,-26.6496,27.96,,,,,,,,,
South Africa,Brits,-25.6296,27.78,,,,,,,,,
South Africa,Bethlehem,-28.2196,28.3,,,,,,,,,
South Africa,Ubomba,-27.5661,32.0833,,,,,,,,,
South Africa,Polokwane,-23.89,29.45,,,,,,,,,
South Africa,Springbok,-29.6667,17.8833,,,,,,,,,
South Africa,Thohoyandou,-22.95,30.48,,,,,,,,,
South Africa,Pietermaritzburg,-29.61,30.39,,,,,,,,,
South Africa,Poffader,-29.1329,19.3834,,,,,,,,,
South Africa,Carnarvon,-30.9496,22.1333,,,,,,,,,
South Africa,Kroonstad,-27.66,27.21,,,,,,,,,
South Africa,Alexander Bay,-28.6083,16.5033,,,,,,,,,
South Africa,Bloemhof,-27.6496,25.59,,,,,,,,,
South Africa,Hermanus,-34.4096,19.2299,,,,,,,,,
South Africa,Bethal,-26.4696,29.45,,,,,,,,,
South Africa,Upington,-28.46,21.23,,,,,,,,,
South Africa,Tzaneen,-23.8195,30.17,,,,,,,,,
South Africa,Vanhynsdorp,-31.6166,18.7333,,,,,,,,,
South Africa,Kimberley,-28.7468,24.77,,,,,,,,,
South Africa,Durban,-29.865,30.98,,,,,,,,,
South Africa,Klerksdorp,-26.88,26.62,,,,,,,,,
South Africa,Welkom,-27.97,26.73,,,,,,,,,
South Africa,De Aar,-30.65,24,,,,,,,,,
South Africa,Prieska,-29.6595,22.73,,,,,,,,,
South Africa,Saldanha,-33.01,17.93,,,,,,,,,
South Africa,Middelburg,-31.5,25.01,,,,,,,,,
South Africa,Port St. Johns,-31.6279,29.5283,,,,,,,,,
South Africa,Volksrust,-27.3596,29.89,,,,,,,,,
South Africa,Ulundi,-28.3296,31.41,,,,,,,,,
South Africa,Beaufort West,-32.3496,22.57,,,,,,,,,
South Africa,Komatipoort,-25.4096,31.94,,,,,,,,,
South Africa,Nelspruit,-25.4745,30.9703,,,,,,,,,
South Africa,Standerton,-26.9395,29.24,,,,,,,,,
South Africa,Johannesburg,-26.17,28.03,,,,,,,,,
South Africa,Kuruman,-27.4496,23.42,,,,,,,,,
South Africa,Paarl,-33.6996,18.96,,,,,,,,,
South Africa,Worcester,-33.64,19.4399,,,,,,,,,
South Africa,Colesberg,-30.7195,25.1,,,,,,,,,
South Africa,Umtata,-31.58,28.79,,,,,,,,,
South Africa,Aliwal North,-30.6896,26.71,,,,,,,,,
South Africa,Middelburg,-25.7596,29.47,,,,,,,,,
South Africa,Springs,-26.2696,28.43,,,,,,,,,
South Africa,Benoni,-26.1496,28.3299,,,,,,,,,
South Africa,Port Shepstone,-30.7195,30.46,,,,,,,,,
South Africa,Oudtshoorn,-33.58,22.19,,,,,,,,,
South Africa,Port Elizabeth,-33.97,25.6,,,,,,,,,
South Africa,Port Alfred,-33.5995,26.88,,,,,,,,,
South Africa,East London,-32.97,27.87,,,,,,,,,
South Africa,Mossel Bay,-34.17,22.13,,,,,,,,,
South Africa,Vryburg,-26.96,24.73,,,,,,,,,
South Africa,Uitenhage,-33.7596,25.39,,,,,,,,,
South Africa,Bhisho,-32.87,27.39,,,,,,,,,
South Africa,Knysna,-34.0329,23.0333,,,,,,,,,
South Africa,Queenstown,-31.8996,26.88,,,,,,,,,
South Africa,Cradock,-32.1995,25.61,,,,,,,,,
South Africa,Bredasdorp,-34.5295,20.03,,,,,,,,,
South Africa,Swellendam,-34.0196,20.43,,,,,,,,,
South Africa,Ladysmith,-28.5495,29.78,,,,,,,,,
South Africa,George,-33.95,22.45,,,,,,,,,
South Africa,Grahamstown,-33.2996,26.52,,,,,,,,,
South Africa,Mmabatho,-25.83,25.61,,,,,,,,,
South Africa,Mahikeng,-25.8652,25.6442,,,,,,,,,
South Africa,Musina,-22.34,30.03,,,,,,,,,
South Africa,Pretoria,-25.7069,28.2294,,,,,,,,,
South Africa,Bloemfontein,-29.12,26.2299,,,,,,,,,
South Africa,Cape Town,-33.92,18.435,,,,,,,,,
Zambia,Zambezi,-13.54,23.1099,,,,,,,,,
Zambia,Solwezi,-12.1796,26.4,,,,,,,,,
Zambia,Lusaka,-15.4166,28.2833,,,,,,,,,
Zambia,Kaoma,-14.7796,24.8,,,,,,,,,
Zambia,Chipata,-13.6296,32.64,,,,,,,,,
Zambia,Senanga,-16.1196,23.27,,,,,,,,,
Zambia,Sesheke,-17.4695,24.3,,,,,,,,,
Zambia,Chililabombwe,-12.3696,27.82,,,,,,,,,
Zambia,Chingola,-12.5396,27.85,,,,,,,,,
Zambia,Kasempa,-13.4596,25.82,,,,,,,,,
Zambia,Kitwe,-12.81,28.22,,,,,,,,,
Zambia,Mufulira,-12.55,28.26,,,,,,,,,
Zambia,Nchelenge,-9.3496,28.73,,,,,,,,,
Zambia,Mazabuka,-15.86,27.76,,,,,,,,,
Zambia,Lukulu,-14.3896,23.24,,,,,,,,,
Zambia,Kafue,-15.78,28.18,,,,,,,,,
Zambia,Lundazi,-12.2895,33.17,,,,,,,,,
Zambia,Mansa,-11.2,28.89,,,,,,,,,
Zambia,Mwinilunga,-11.7396,24.44,,,,,,,,,
Zambia,Mumbwa,-14.9796,27.07,,,,,,,,,
Zambia,Kalabo,-14.9896,22.68,,,,,,,,,
Zambia,Nyimba,-14.5495,30.81,,,,,,,,,
Zambia,Kapiri Mposhi,-13.9696,28.66,,,,,,,,,
Zambia,Kabwe,-14.44,28.45,,,,,,,,,
Zambia,Ndola,-12.9999,28.65,,,,,,,,,
Zambia,Kasama,-10.1996,31.1799,,,,,,,,,
Zambia,Mbala,-8.84,31.37,,,,,,,,,
Zambia,Kawambwa,-9.7795,29.08,,,,,,,,,
Zambia,Luanshya,-13.1333,28.4,,,,,,,,,
Zambia,Mongu,-15.2796,23.12,,,,,,,,,
Zambia,Mpika,-11.83,31.46,,,,,,,,,
Zambia,Chinsali,-10.5496,32.06,,,,,,,,,
Zambia,Livingstone,-17.86,25.86,,,,,,,,,
Zambia,Choma,-16.8095,26.97,,,,,,,,,
Zimbabwe,Plumtree,-20.4795,27.82,,,,,,,,,
Zimbabwe,Kariba,-16.5296,28.8,,,,,,,,,
Zimbabwe,Hwange,-18.37,26.5,,,,,,,,,
Zimbabwe,Chiredzi,-21.0496,31.66,,,,,,,,,
Zimbabwe,Mazowe,-17.5196,30.97,,,,,,,,,
Zimbabwe,Zvishavane,-20.3296,30.05,,,,,,,,,
Zimbabwe,Shamva,-17.3196,31.57,,,,,,,,,
Zimbabwe,Harare,-17.8178,31.0447,,,,,,,,,
Zimbabwe,Kwekwe,-18.9296,29.8,,,,,,,,,
Zimbabwe,Kadoma,-18.33,29.9099,,,,,,,,,
Zimbabwe,Beitbridge,-22.2096,29.99,,,,,,,,,
Zimbabwe,Karoi,-16.8196,29.68,,,,,,,,,
Zimbabwe,Victoria Falls,-17.9296,25.84,,,,,,,,,
Zimbabwe,Chitungwiza,-18,31.1,,,,,,,,,
Zimbabwe,Bindura,-17.3019,31.3306,,,,,,,,,
Zimbabwe,Lupane,-18.9315,27.807,,,,,,,,,
Zimbabwe,Marondera,-18.1853,31.5519,,,,,,,,,
Zimbabwe,Masvingo,-20.0596,30.82,,,,,,,,,
Zimbabwe,Mutare,-18.97,32.65,,,,,,,,,
Zimbabwe,Bulawayo,-20.17,28.58,,,,,,,,,
Zimbabwe,Chinhoyi,-17.3596,30.18,,,,,,,,,
Zimbabwe,Gwanda,-20.9396,29.01,,,,,,,,,
Zimbabwe,Gweru,-19.45,29.82,,,,,,,,,
Kazakhstan,Maqat,47.6482,53.3265,,,,,,,,,
Kazakhstan,Zhangaozen,43.3004,52.8,,,,,,,,,
Kazakhstan,Taraz,42.9,71.365,,,,,,,,,
Kazakhstan,Oral,51.2711,51.335,,,,,,,,,
Kazakhstan,Balqash,46.8532,74.9502,,,,,,,,,
Kazakhstan,Zaysan,47.4752,84.8598,,,,,,,,,
Kazakhstan,Oytal,42.9153,73.2549,,,,,,,,,
Kazakhstan,Zholymbet,51.7502,71.7099,,,,,,,,,
Kazakhstan,Serebryansk,49.6999,83.4249,,,,,,,,,
Kazakhstan,Chapaev,50.1915,51.1449,,,,,,,,,
Kazakhstan,Ridder,50.3554,83.5149,,,,,,,,,
Kazakhstan,Zhaltyr,51.6324,69.8328,,,,,,,,,
Kazakhstan,Atbasar,51.8219,68.3477,,,,,,,,,
Kazakhstan,Aqsay,51.1714,53.0349,,,,,,,,,
Kazakhstan,Shemonaikha,50.6316,81.905,,,,,,,,,
Kazakhstan,Atasu,48.6903,71.6499,,,,,,,,,
Kazakhstan,Rudny,52.9527,63.13,,,,,,,,,
Kazakhstan,Makhambet,47.6714,51.5798,,,,,,,,,
Kazakhstan,Fort Shevchenko,44.5171,50.2666,,,,,,,,,
Kazakhstan,Qusmuryn,52.458,64.6,,,,,,,,,
Kazakhstan,Oktyabrsk,49.4731,57.4449,,,,,,,,,
Kazakhstan,Khromtau,50.2699,58.45,,,,,,,,,
Kazakhstan,Algha,49.9032,57.335,,,,,,,,,
Kazakhstan,Embi,48.8268,58.1442,,,,,,,,,
Kazakhstan,Ushtobe,45.2653,77.97,,,,,,,,,
Kazakhstan,Burylbaytal,44.9387,74.0303,,,,,,,,,
Kazakhstan,Zhanibek,49.4276,46.8772,,,,,,,,,
Kazakhstan,Esil,51.957,66.3775,,,,,,,,,
Kazakhstan,Derzhavinsk,51.1021,66.3075,,,,,,,,,
Kazakhstan,Saryshaghan,46.1195,73.6191,,,,,,,,,
Kazakhstan,Turgay,49.626,63.499,,,,,,,,,
Kazakhstan,Sarqan,45.4203,79.9149,,,,,,,,,
Kazakhstan,Arqalyq,50.2418,66.8976,,,,,,,,,
Kazakhstan,Shalqar,47.8363,59.6141,,,,,,,,,
Kazakhstan,Shieli,44.167,66.75,,,,,,,,,
Kazakhstan,Bayghanin,48.6917,55.874,,,,,,,,,
Kazakhstan,Zhezqazghan,47.78,67.77,,,,,,,,,
Kazakhstan,Mangyshlak,43.6905,51.1417,,,,,,,,,
Kazakhstan,Zhosaly,45.4877,64.078,,,,,,,,,
Kazakhstan,Beyneu,45.1834,55.1,,,,,,,,,
Kazakhstan,Qazaly,45.7628,62.1075,,,,,,,,,
Kazakhstan,Aral,46.8,61.6666,,,,,,,,,
Kazakhstan,Ayakoz,47.9647,80.4297,,,,,,,,,
Kazakhstan,Urzhar,47.1002,81.6048,,,,,,,,,
Kazakhstan,Qapshaghay,43.8844,77.0687,,,,,,,,,
Kazakhstan,Esik,43.3691,77.4438,,,,,,,,,
Kazakhstan,Qaratau,43.1854,70.46,,,,,,,,,
Kazakhstan,Sharbaqty,52.4999,78.1499,,,,,,,,,
Kazakhstan,Oostanay,53.2209,63.6283,,,,,,,,,
Kazakhstan,Kachiry,53.0804,76.09,,,,,,,,,
Kazakhstan,Kishkenekol,53.6368,72.3414,,,,,,,,,
Kazakhstan,Bulaevo,54.9053,70.44,,,,,,,,,
Kazakhstan,Shonzhy,43.5421,79.4703,,,,,,,,,
Kazakhstan,Qyzylorda,44.8,65.465,,,,,,,,,
Kazakhstan,Qaraghandy,49.885,73.115,,,,,,,,,
Kazakhstan,Ertis,53.3453,75.4499,,,,,,,,,
Kazakhstan,Tayynsha,53.8481,69.7638,,,,,,,,,
Kazakhstan,Qulan,42.9204,72.705,,,,,,,,,
Kazakhstan,Shu,43.5953,73.7448,,,,,,,,,
Kazakhstan,Kentau,43.5165,68.5199,,,,,,,,,
Kazakhstan,Oskemen,49.99,82.6149,,,,,,,,,
Kazakhstan,Aqtau,43.6232,51.2365,,,,,,,,,
Kazakhstan,Taldyqorghan,45,78.4,,,,,,,,,
Kazakhstan,Astana,51.1811,71.4278,,,,,,,,,
Kazakhstan,Aqtobe,50.28,57.17,,,,,,,,,
Kazakhstan,Kokshetau,53.3,69.42,,,,,,,,,
Kazakhstan,Petropavlovsk,54.88,69.22,,,,,,,,,
Kazakhstan,Pavlodar,52.3,76.95,,,,,,,,,
Kazakhstan,Otar,43.5346,75.2139,,,,,,,,,
Kazakhstan,Almaty,43.325,76.915,,,,,,,,,
Kazakhstan,Bestobe,52.4997,73.0997,,,,,,,,,
Kazakhstan,Arys,42.4369,68.8048,,,,,,,,,
Kazakhstan,Lenger,42.1899,69.8799,,,,,,,,,
Kazakhstan,Aqsu,52.4502,71.9597,,,,,,,,,
Kazakhstan,Temirtau,50.065,72.965,,,,,,,,,
Kazakhstan,Makinsk,52.6404,70.41,,,,,,,,,
Kazakhstan,Osakarovka,50.5799,72.5699,,,,,,,,,
Kazakhstan,Qarqaraly,49.4249,75.4649,,,,,,,,,
Kazakhstan,Ekibastuz,51.73,75.3199,,,,,,,,,
Kazakhstan,Zyryanovsk,49.7453,84.2548,,,,,,,,,
Kazakhstan,Komsomolets,53.7506,62.0502,,,,,,,,,
Kazakhstan,Baykonur,45.6914,63.2413,,,,,,,,,
Kazakhstan,Erymentau,51.6303,73.1049,,,,,,,,,
Kazakhstan,Qarazhal,48.0253,70.7999,,,,,,,,,
Kazakhstan,Tobol,52.698,62.5749,,,,,,,,,
Kazakhstan,Shar,49.6003,81.0549,,,,,,,,,
Kazakhstan,Semey,50.435,80.275,,,,,,,,,
Kazakhstan,Boralday,43.3341,76.8288,,,,,,,,,
Kazakhstan,Zhetiqara,52.193,61.2399,,,,,,,,,
Kazakhstan,Aqadyr,48.2749,72.8599,,,,,,,,,
Kazakhstan,Zharkent,44.1616,79.9801,,,,,,,,,
Kazakhstan,Qulsary,46.9833,54.0165,,,,,,,,,
Kazakhstan,Balyqshy,47.0666,51.8666,,,,,,,,,
Kazakhstan,Atyrau,47.1127,51.92,,,,,,,,,
Kazakhstan,Shymkent,42.32,69.595,,,,,,,,,
Kazakhstan,Turkistan,43.3016,68.2549,,,,,,,,,
Laos,Xiangkhoang,19.3337,103.3666,,,,,,,,,
Laos,Muang Phônsavan,19.45,103.2167,,,,,,,,,
Laos,Vientiane,17.9667,102.6,,,,,,,,,
Laos,Ban Houayxay,20.2775,100.4128,,,,,,,,,
Laos,Muang Phôn-Hông,18.4957,102.4142,,,,,,,,,
Laos,Louang Namtha,20.95,101.4167,,,,,,,,,
Laos,Phongsali,21.6833,102.1,,,,,,,,,
Laos,Thakhek,17.4112,104.8361,,,,,,,,,
Laos,Muang Pakxan,18.3826,103.6586,,,,,,,,,
Laos,Louangphrabang,19.8845,102.1416,,,,,,,,,
Laos,Xaignabouri,19.2505,101.7501,,,,,,,,,
Laos,Savannakhet,16.5376,104.773,,,,,,,,,
Laos,Lamam,15.4171,106.6946,,,,,,,,,
Laos,Pakxe,15.1221,105.8183,,,,,,,,,
Laos,Attapu,14.808,106.839,,,,,,,,,
Laos,Xam Nua,20.4167,104.0333,,,,,,,,,
Laos,Muang Xai,20.6923,101.9847,,,,,,,,,
Laos,Saravan,15.716,106.427,,,,,,,,,
Laos,Champasak,14.8833,105.8667,,,,,,,,,
Lebanon,Beirut,33.872,35.5097,,,,,,,,,
Lebanon,Zahlé,33.8501,35.9042,,,,,,,,,
Lebanon,Baalbek,34.0058,36.2181,,,,,,,,,
Lebanon,B'abda,33.8333,35.5333,,,,,,,,,
Lebanon,Halba,34.5428,36.0797,,,,,,,,,
Lebanon,Saida,33.563,35.3688,,,,,,,,,
Lebanon,Nabatiye et Tahta,33.3833,35.45,,,,,,,,,
Lebanon,Trablous,34.42,35.87,,,,,,,,,
Saint Lucia,Castries,14.002,-61,,,,,,,,,
Liechtenstein,Gamprin,47.2197,9.5113,,,,,,,,,
Liechtenstein,Triesenberg,47.1182,9.5444,,,,,,,,,
Liechtenstein,Schaan,47.1661,9.5096,,,,,,,,,
Liechtenstein,Ruggell,47.2408,9.5247,,,,,,,,,
Liechtenstein,Mauren,47.2205,9.5426,,,,,,,,,
Liechtenstein,Eschen,47.2109,9.5216,,,,,,,,,
Liechtenstein,Triesen,47.1101,9.524,,,,,,,,,
Liechtenstein,Balzers,47.0667,9.5025,,,,,,,,,
Liechtenstein,Vaduz,47.1337,9.5167,,,,,,,,,
Liechtenstein,Planken,47.1844,9.5436,,,,,,,,,
Liechtenstein,Schellenberg,47.2325,9.5463,,,,,,,,,
Sri Lanka,Colombo,6.932,79.8578,,,,,,,,,
Sri Lanka,Ratnapura,6.693,80.386,,,,,,,,,
Sri Lanka,Matara,5.949,80.5428,,,,,,,,,
Sri Lanka,Sri Jawewardenepura Kotte,6.9,79.95,,,,,,,,,
Sri Lanka,Moratuwa,6.7804,79.88,,,,,,,,,
Sri Lanka,Anuradhapura,8.35,80.3833,,,,,,,,,
Sri Lanka,Galle,6.03,80.24,,,,,,,,,
Sri Lanka,Puttalan,8.033,79.826,,,,,,,,,
Sri Lanka,Kandy,7.28,80.67,,,,,,,,,
Sri Lanka,Badulla,6.9837,81.0499,,,,,,,,,
Sri Lanka,Trincomalee,8.569,81.233,,,,,,,,,
Sri Lanka,Kilinochchi,9.4004,80.3999,,,,,,,,,
Sri Lanka,Batticaloa,7.717,81.7,,,,,,,,,
Sri Lanka,Jaffna,9.675,80.005,,,,,,,,,
Liberia,Bopolu,7.0667,-10.4875,,,,,,,,,
Liberia,Voinjama,8.4167,-9.75,,,,,,,,,
Liberia,Robertsport,6.7533,-11.3686,,,,,,,,,
Liberia,Buchanan,5.9161,-10.0525,,,,,,,,,
Liberia,Monrovia,6.3106,-10.8048,,,,,,,,,
Liberia,Tubmanburg,6.8706,-10.8211,,,,,,,,,
Liberia,Buchanan,5.8811,-10.0447,,,,,,,,,
Liberia,Zwedru,6.0704,-8.13,,,,,,,,,
Liberia,Barclayville,4.8,-8.1667,,,,,,,,,
Liberia,Rivercess,5.465,-9.578,,,,,,,,,
Liberia,Fish Town,5.1974,-7.8758,,,,,,,,,
Liberia,Gbarnga,7.0104,-9.49,,,,,,,,,
Liberia,Kakata,6.526,-10.349,,,,,,,,,
Liberia,Sanniquellie,7.371,-8.685,,,,,,,,,
Liberia,Greenville,5.0111,-9.0388,,,,,,,,,
Liberia,Bensonville,6.4333,-10.6,,,,,,,,,
Liberia,Harper,4.3754,-7.717,,,,,,,,,
Lesotho,Maseru,-29.3167,27.4833,,,,,,,,,
Lesotho,Mokhotlong,-29.291,29.078,,,,,,,,,
Lesotho,Thaba-Tseka,-29.522,28.6084,,,,,,,,,
Lesotho,Moyeni,-30.411,27.716,,,,,,,,,
Lesotho,Qacha’s Nek,-30.1154,28.6894,,,,,,,,,
Lesotho,Mafetang,-29.8166,27.25,,,,,,,,,
Lesotho,Hlotse,-28.878,28.056,,,,,,,,,
Lesotho,Teyateyaneng,-29.153,27.753,,,,,,,,,
Lesotho,Mohales Hoek,-30.159,27.48,,,,,,,,,
Lesotho,Butha-Buthe,-28.75,28.25,,,,,,,,,
Lithuania,Klaipėda,55.7204,21.1199,,,,,,,,,
Lithuania,Palanga,55.9203,21.071,,,,,,,,,
Lithuania,Nida,55.3086,20.9965,,,,,,,,,
Lithuania,Kretinga,55.8888,21.2445,,,,,,,,,
Lithuania,Tauragė,55.2522,22.2897,,,,,,,,,
Lithuania,Šilutė,55.3453,21.4733,,,,,,,,,
Lithuania,Rietavas,55.7271,21.9234,,,,,,,,,
Lithuania,Plungė,55.9077,21.8456,,,,,,,,,
Lithuania,Šilalė,55.4898,22.1869,,,,,,,,,
Lithuania,Visaginas,55.5968,26.4398,,,,,,,,,
Lithuania,Zarasai,55.7322,26.2512,,,,,,,,,
Lithuania,Ignalina,55.3406,26.1605,,,,,,,,,
Lithuania,Utena,55.4976,25.5992,,,,,,,,,
Lithuania,Švenčionys,55.133,26.1595,,,,,,,,,
Lithuania,Rokiškis,55.9587,25.5947,,,,,,,,,
Lithuania,Molėtai,55.2247,25.4169,,,,,,,,,
Lithuania,Šalčininkai,54.3086,25.3868,,,,,,,,,
Lithuania,Vilnius,54.6834,25.3166,,,,,,,,,
Lithuania,Kupiškis,55.8401,24.9803,,,,,,,,,
Lithuania,Trakai,54.6399,24.936,,,,,,,,,
Lithuania,Biržai,56.1986,24.7521,,,,,,,,,
Lithuania,Anykščiai,55.5246,25.1066,,,,,,,,,
Lithuania,Telšiai,55.9831,22.2343,,,,,,,,,
Lithuania,Kelmė,55.6301,22.9349,,,,,,,,,
Lithuania,Marijampolė,54.5599,23.3541,,,,,,,,,
Lithuania,Lazdijai,54.2333,23.5147,,,,,,,,,
Lithuania,Šakiai,54.9534,23.0478,,,,,,,,,
Lithuania,Radviliškis,55.8111,23.5411,,,,,,,,,
Lithuania,Šiauliai,55.9386,23.325,,,,,,,,,
Lithuania,Birštonas,54.6048,24.0311,,,,,,,,,
Lithuania,Druskininkai,54.0157,23.987,,,,,,,,,
Lithuania,Kėdainiai,55.2878,23.9727,,,,,,,,,
Lithuania,Alytus,54.3964,24.0414,,,,,,,,,
Lithuania,Prienai,54.636,23.9458,,,,,,,,,
Lithuania,Elektrėnai,54.7863,24.6626,,,,,,,,,
Lithuania,Kaunas,54.9504,23.88,,,,,,,,,
Lithuania,Jonava,55.0801,24.2754,,,,,,,,,
Lithuania,Kaišiadorys,54.8653,24.4682,,,,,,,,,
Lithuania,Panevežys,55.74,24.37,,,,,,,,,
Lithuania,Joniškis,56.2394,23.6154,,,,,,,,,
Lithuania,Kazlų Rūda,54.7497,23.495,,,,,,,,,
Lithuania,Vilkaviškis,54.648,23.0305,,,,,,,,,
Lithuania,Pasvalys,56.0625,24.3997,,,,,,,,,
Lithuania,Pakruojis,55.9789,23.8551,,,,,,,,,
Lithuania,Raseiniai,55.3797,23.1239,,,,,,,,,
Lithuania,Pagėgiai,55.1379,21.9138,,,,,,,,,
Lithuania,Jurbarkas,55.0756,22.7642,,,,,,,,,
Lithuania,Kalvarija,54.4172,23.2283,,,,,,,,,
Lithuania,Širvintos,55.044,24.9545,,,,,,,,,
Lithuania,Skuodas,56.2706,21.5321,,,,,,,,,
Lithuania,Mažeikiai,56.3122,22.3265,,,,,,,,,
Lithuania,Akmenė,56.25,22.75,,,,,,,,,
Lithuania,Ukmergė,55.2494,24.7636,,,,,,,,,
Lithuania,Varėna,54.2155,24.5754,,,,,,,,,
Luxembourg,Capellen,49.645,5.9908,,,,,,,,,
Luxembourg,Esch-sur-Alzette,49.4958,5.9806,,,,,,,,,
Luxembourg,Remich,49.545,6.3669,,,,,,,,,
Luxembourg,Echternach,49.8056,6.4222,,,,,,,,,
Luxembourg,Mersch,49.7489,6.1061,,,,,,,,,
Luxembourg,Redange-sur-Attert,49.7656,5.8908,,,,,,,,,
Luxembourg,Vianden,49.935,6.2089,,,,,,,,,
Luxembourg,Wiltz,49.9689,5.9319,,,,,,,,,
Luxembourg,Clervaux,50.0547,6.0314,,,,,,,,,
Luxembourg,Diekirch,49.8833,6.1667,,,,,,,,,
Luxembourg,Grevenmacher,49.7,6.3333,,,,,,,,,
Luxembourg,Luxembourg,49.6117,6.13,,,,,,,,,
Latvia,Auce,56.4611,22.9028,,,,,,,,,
Latvia,Daugavpils,55.88,26.51,,,,,,,,,
Latvia,Jēkabpils,56.4833,25.85,,,,,,,,,
Latvia,Salacgrīva,57.7531,24.359,,,,,,,,,
Latvia,Ventspils,57.3899,21.5606,,,,,,,,,
Latvia,Dundaga,57.505,22.3504,,,,,,,,,
Latvia,Jaunjelgava,56.6132,25.0832,,,,,,,,,
Latvia,Nereta,56.2044,25.3077,,,,,,,,,
Latvia,Alsunga,56.9801,21.564,,,,,,,,,
Latvia,Kuldīga,56.969,21.968,,,,,,,,,
Latvia,Pāvilosta,56.8898,21.1817,,,,,,,,,
Latvia,Piņķi,56.9419,23.9137,,,,,,,,,
Latvia,Ādaži,57.0705,24.3371,,,,,,,,,
Latvia,Kandava,57.0389,22.7724,,,,,,,,,
Latvia,Roja,57.5015,22.8088,,,,,,,,,
Latvia,Carnikava,57.1293,24.2842,,,,,,,,,
Latvia,Garkalne,57.0449,24.4195,,,,,,,,,
Latvia,Saulkrasti,57.2599,24.4189,,,,,,,,,
Latvia,Smārde,56.9533,23.3387,,,,,,,,,
Latvia,Mērsrags,57.3364,23.1235,,,,,,,,,
Latvia,Talsi,57.2465,22.5876,,,,,,,,,
Latvia,Jūrmala,56.9567,23.7233,,,,,,,,,
Latvia,Mārupe,56.9032,24.0467,,,,,,,,,
Latvia,Ulbroka,56.9363,24.3039,,,,,,,,,
Latvia,Zilupe,56.386,28.1218,,,,,,,,,
Latvia,Ludza,56.5396,27.7189,,,,,,,,,
Latvia,Dagda,56.0961,27.5328,,,,,,,,,
Latvia,Baltinava,56.9439,27.644,,,,,,,,,
Latvia,Cibla,56.5498,27.8837,,,,,,,,,
Latvia,Kārsava,56.7874,27.6732,,,,,,,,,
Latvia,Riga,56.95,24.1,,,,,,,,,
Latvia,Krāslava,55.8969,27.172,,,,,,,,,
Latvia,Limbaži,57.513,24.724,,,,,,,,,
Latvia,Preiļi,56.294,26.7248,,,,,,,,,
Latvia,Vecvārkava,56.1984,26.5081,,,,,,,,,
Latvia,Ilūkste,55.9779,26.2978,,,,,,,,,
Latvia,Nīca,56.3456,21.0646,,,,,,,,,
Latvia,Bauska,56.4079,24.1944,,,,,,,,,
Latvia,Viļaka,57.1843,27.6719,,,,,,,,,
Latvia,Līvāni,56.3567,26.1761,,,,,,,,,
Latvia,Alūksne,57.4216,27.0466,,,,,,,,,
Latvia,Jaunpils,56.7314,23.0125,,,,,,,,,
Latvia,Brocēni,56.6789,22.5694,,,,,,,,,
Latvia,Rugāji,57.0033,27.1337,,,,,,,,,
Latvia,Riebiņi,56.3403,26.7999,,,,,,,,,
Latvia,Viļāni,56.5505,26.9298,,,,,,,,,
Latvia,Varakļāni,56.6091,26.7547,,,,,,,,,
Latvia,Ape,57.5394,26.694,,,,,,,,,
Latvia,Madona,56.851,26.2184,,,,,,,,,
Latvia,Jaunpiebalga,57.1775,26.0284,,,,,,,,,
Latvia,Lubāna,56.9043,26.7161,,,,,,,,,
Latvia,Gulbene,57.1734,26.7527,,,,,,,,,
Latvia,Balvi,57.1287,27.27,,,,,,,,,
Latvia,Aknīste,56.1615,25.7482,,,,,,,,,
Latvia,Viesīte,56.3465,25.5581,,,,,,,,,
Latvia,Cesvaine,56.9675,26.3076,,,,,,,,,
Latvia,Ķegums,56.7455,24.725,,,,,,,,,
Latvia,Vecpiebalga,57.0618,25.8179,,,,,,,,,
Latvia,Smiltene,57.4242,25.9017,,,,,,,,,
Latvia,Drabeši,57.2433,25.2803,,,,,,,,,
Latvia,Cēsis,57.3091,25.2761,,,,,,,,,
Latvia,Ērgļi,56.8988,25.6429,,,,,,,,,
Latvia,Valka,57.7767,26.0118,,,,,,,,,
Latvia,Grobiņa,56.5358,21.1747,,,,,,,,,
Latvia,Strenči,57.6269,25.6919,,,,,,,,,
Latvia,Mūrmuiža,57.4731,25.4917,,,,,,,,,
Latvia,Mazsalaca,57.8619,25.0547,,,,,,,,,
Latvia,Aloja,57.7672,24.8774,,,,,,,,,
Latvia,Burtnieki,57.6949,25.275,,,,,,,,,
Latvia,Koknese,56.6516,25.4364,,,,,,,,,
Latvia,Aizkraukle,56.6029,25.2636,,,,,,,,,
Latvia,Skrīveri,56.6485,25.1195,,,,,,,,,
Latvia,Baldone,56.7445,24.4008,,,,,,,,,
Latvia,Vecumnieki,56.6061,24.5223,,,,,,,,,
Latvia,Sala,56.5047,25.7618,,,,,,,,,
Latvia,Pļaviņas,56.6177,25.7194,,,,,,,,,
Latvia,Liepaga,56.51,21.01,,,,,,,,,
Latvia,Rūjiena,57.8961,25.3342,,,,,,,,,
Latvia,Naukšēni,57.8842,25.458,,,,,,,,,
Latvia,Lieģi,56.5797,21.3338,,,,,,,,,
Latvia,Rauna,57.3337,25.6085,,,,,,,,,
Latvia,Aizpute,56.7211,21.6016,,,,,,,,,
Latvia,Kocēni,57.5198,25.3404,,,,,,,,,
Latvia,Valmiera,57.5387,25.4257,,,,,,,,,
Latvia,Sigulda,57.1538,24.8595,,,,,,,,,
Latvia,Priekuļi,57.3115,25.3571,,,,,,,,,
Latvia,Ogre,56.8113,24.6113,,,,,,,,,
Latvia,Ragana,57.1821,24.7056,,,,,,,,,
Latvia,Loja,57.1534,24.6433,,,,,,,,,
Latvia,Ropaži,56.9747,24.6329,,,,,,,,,
Latvia,Priekule,56.4458,21.5939,,,,,,,,,
Latvia,Iecava,56.5977,24.2076,,,,,,,,,
Latvia,Rucava,56.164,21.1627,,,,,,,,,
Latvia,Pilsrundāle,56.4181,24.0162,,,,,,,,,
Latvia,Salaspils,56.861,24.3498,,,,,,,,,
Latvia,Ikšķile,56.834,24.4968,,,,,,,,,
Latvia,Lielvārde,56.7213,24.8062,,,,,,,,,
Latvia,Inčukalns,57.0987,24.6863,,,,,,,,,
Latvia,Mālpils,57.0101,24.9578,,,,,,,,,
Latvia,Olaine,56.7947,23.9358,,,,,,,,,
Latvia,Ķekava,56.8296,24.2318,,,,,,,,,
Latvia,Līgatne,57.2379,25.0436,,,,,,,,,
Latvia,Stalbe,57.3708,25.0324,,,,,,,,,
Latvia,Jelgava,56.6527,23.7128,,,,,,,,,
Latvia,Skrunda,56.6775,22.0165,,,,,,,,,
Latvia,Vaiņode,56.4185,21.8541,,,,,,,,,
Latvia,Saldus,56.6666,22.4935,,,,,,,,,
Latvia,Tukums,56.9676,23.1555,,,,,,,,,
Latvia,Tērvete,56.4798,23.3902,,,,,,,,,
Latvia,Dobele,56.6237,23.2751,,,,,,,,,
Latvia,Rēzekne,56.5,27.3166,,,,,,,,,
Latvia,Aglona,56.1327,27.0068,,,,,,,,,
Latvia,Ozolnieki,56.6899,23.7761,,,,,,,,,
Libya,Tripoli,32.8925,13.18,,,,,,,,,
Libya,Al ‘Azīzīyah,32.5319,13.0175,,,,,,,,,
Libya,Zuwarah,32.9344,12.0791,,,,,,,,,
Libya,Al Khums,32.6604,14.26,,,,,,,,,
Libya,As Sidr,30.6704,18.2666,,,,,,,,,
Libya,Ghadamis,30.1333,9.5,,,,,,,,,
Libya,Dirj,30.1679,10.4567,,,,,,,,,
Libya,Nalut,31.8804,10.97,,,,,,,,,
Libya,Umm al Abid,27.517,15.0333,,,,,,,,,
Libya,Sabha,27.0333,14.4333,,,,,,,,,
Libya,Birak,27.5333,14.2834,,,,,,,,,
Libya,Idrī,27.4471,13.0517,,,,,,,,,
Libya,Zillah,28.5504,17.5834,,,,,,,,,
Libya,Hun,29.1167,15.9333,,,,,,,,,
Libya,Az Zawiyah,32.7604,12.72,,,,,,,,,
Libya,Awjilah,29.108,21.2869,,,,,,,,,
Libya,El Agheila,30.257,19.2,,,,,,,,,
Libya,Maradah,29.2337,19.2166,,,,,,,,,
Libya,Ajdabiya,30.77,20.22,,,,,,,,,
Libya,Darnah,32.7648,22.6391,,,,,,,,,
Libya,Al Jaghbub,29.7504,24.5166,,,,,,,,,
Libya,Mizdah,31.4337,12.9833,,,,,,,,,
Libya,Gharyan,32.1704,13.02,,,,,,,,,
Libya,Tubruq,32.08,23.96,,,,,,,,,
Libya,Shahhat,32.8281,21.8622,,,,,,,,,
Libya,Tajarhi,24.3704,14.4708,,,,,,,,,
Libya,Al Bayda,32.7604,21.62,,,,,,,,,
Libya,Ghat,24.9647,10.1728,,,,,,,,,
Libya,Tmassah,26.3666,15.8,,,,,,,,,
Libya,Marzuq,25.9044,13.8972,,,,,,,,,
Libya,Al Marj,32.5005,20.83,,,,,,,,,
Libya,Surt,31.21,16.59,,,,,,,,,
Libya,Bani Walid,31.7704,13.99,,,,,,,,,
Libya,Awbārī,26.5903,12.7751,,,,,,,,,
Libya,Al Jawf,24.2,23.29,,,,,,,,,
Libya,Al Kufrah,24.1667,23.2696,,,,,,,,,
Libya,Qaminis,31.6606,20.0155,,,,,,,,,
Libya,Banghazi,32.1167,20.0667,,,,,,,,,
Libya,Misratah,32.38,15.1,,,,,,,,,
Morocco,Kenitra,34.2704,-6.58,,,,,,,,,
Morocco,Goulimine,28.98,-10.07,,,,,,,,,
Morocco,Fez,34.0546,-5.0004,,,,,,,,,
Morocco,Casablanca,33.6,-7.6164,,,,,,,,,
Morocco,Agadir,30.44,-9.62,,,,,,,,,
Morocco,Béni Mellal,32.3373,-6.3498,,,,,,,,,
Morocco,Tangier,35.7473,-5.8327,,,,,,,,,
Morocco,Settat,33.0104,-7.62,,,,,,,,,
Morocco,Oujda,34.69,-1.91,,,,,,,,,
Morocco,Meknes,33.9004,-5.56,,,,,,,,,
Morocco,Rabat,34.0253,-6.8361,,,,,,,,,
Morocco,Marrakesh,31.63,-8,,,,,,,,,
Morocco,El Jadida,33.2604,-8.51,,,,,,,,,
Morocco,Er Rachidia,31.9404,-4.45,,,,,,,,,
Morocco,Tan Tan,28.4304,-11.1,,,,,,,,,
Morocco,Taza,34.2204,-4.02,,,,,,,,,
Morocco,Larache,35.2004,-6.16,,,,,,,,,
Morocco,Ksar El Kebir,35.0204,-5.91,,,,,,,,,
Morocco,Safi,32.32,-9.24,,,,,,,,,
Morocco,Tiznit,29.7104,-9.74,,,,,,,,,
Morocco,Ouezzane,34.8103,-5.57,,,,,,,,,
Monaco,Monaco,43.7396,7.4069,,,,,,,,,
Moldova,Leova,46.4823,28.253,,,,,,,,,
Moldova,Rezina,47.7493,28.9658,,,,,,,,,
Moldova,Căuşeni,46.6367,29.4111,,,,,,,,,
Moldova,Rîşcani,47.9479,27.5638,,,,,,,,,
Moldova,Sîngerei,47.6363,28.143,,,,,,,,,
Moldova,Făleşti,47.5767,27.7126,,,,,,,,,
Moldova,Floreşti,47.8914,28.2931,,,,,,,,,
Moldova,Şoldăneşti,47.8161,28.7972,,,,,,,,,
Moldova,Ştefan Vodă,46.5129,29.6619,,,,,,,,,
Moldova,Orhei,47.3849,28.8245,,,,,,,,,
Moldova,Comrat,46.2946,28.6565,,,,,,,,,
Moldova,Cimişlia,46.5268,28.7644,,,,,,,,,
Moldova,Cantemir,46.2774,28.2027,,,,,,,,,
Moldova,Basarabeasca,46.3317,28.9636,,,,,,,,,
Moldova,Edineţ,48.1721,27.3034,,,,,,,,,
Moldova,Ocniţa,48.3827,27.4381,,,,,,,,,
Moldova,Drochia,48.0355,27.8129,,,,,,,,,
Moldova,Donduşeni,48.2394,27.6056,,,,,,,,,
Moldova,Briceni,48.3629,27.0779,,,,,,,,,
Moldova,Ialoveni,46.9435,28.7823,,,,,,,,,
Moldova,Bălți,47.7591,27.9053,,,,,,,,,
Moldova,Criuleni,47.2131,29.1593,,,,,,,,,
Moldova,Bender,46.8316,29.4777,,,,,,,,,
Moldova,Anenii Noi,46.8784,29.2348,,,,,,,,,
Moldova,Cahul,45.9079,28.1944,,,,,,,,,
Moldova,Chișinău,47.005,28.8577,,,,,,,,,
Moldova,Straşeni,47.1422,28.6077,,,,,,,,,
Moldova,Tiraspol,46.8531,29.64,,,,,,,,,
Moldova,Teleneşti,47.5011,28.3654,,,,,,,,,
Moldova,Taraclia,45.9027,28.6682,,,,,,,,,
Moldova,Dubăsari,47.2631,29.1608,,,,,,,,,
Moldova,Cocieri,47.3087,29.1101,,,,,,,,,
Moldova,Călăraşi,47.2556,28.3099,,,,,,,,,
Moldova,Glodeni,47.7751,27.5189,,,,,,,,,
Moldova,Hînceşti,46.8305,28.5906,,,,,,,,,
Moldova,Nisporeni,47.0816,28.1714,,,,,,,,,
Moldova,Soroca,48.1566,28.2849,,,,,,,,,
Moldova,Ungheni,47.2108,27.8005,,,,,,,,,
Montenegro,Berane,42.8425,19.8733,,,,,,,,,
Montenegro,Plav,42.5969,19.9456,,,,,,,,,
Montenegro,Andrijevica,42.7339,19.7919,,,,,,,,,
Montenegro,Petnjica,42.9089,19.9644,,,,,,,,,
Montenegro,Gusinje,42.5619,19.8339,,,,,,,,,
Montenegro,Kolašin,42.8242,19.5225,,,,,,,,,
Montenegro,Podgorica,42.466,19.2663,,,,,,,,,
Montenegro,Bijelo Polje,43.0292,19.7456,,,,,,,,,
Montenegro,Bar,42.0931,19.1003,,,,,,,,,
Montenegro,Budva,42.2864,18.84,,,,,,,,,
Montenegro,Cetinje,42.3922,18.9225,,,,,,,,,
Montenegro,Danilovgrad,42.5472,19.1053,,,,,,,,,
Montenegro,Herceg-Novi,42.4531,18.5375,,,,,,,,,
Montenegro,Kotor,42.4258,18.7719,,,,,,,,,
Montenegro,Mojkovac,42.9639,19.5825,,,,,,,,,
Montenegro,Nikšić,42.775,18.9583,,,,,,,,,
Montenegro,Plužine,43.1528,18.8394,,,,,,,,,
Montenegro,Pljevlja,43.3522,19.3542,,,,,,,,,
Montenegro,Rožaje,42.8439,20.1683,,,,,,,,,
Montenegro,Šavnik,42.9564,19.0967,,,,,,,,,
Montenegro,Tivat,42.4364,18.6961,,,,,,,,,
Montenegro,Ulcinj,41.9283,19.2064,,,,,,,,,
Montenegro,Žabljak,43.1547,19.1219,,,,,,,,,
Saint Martin,Marigot,18.0706,-63.0847,,,,,,,,,
Madagascar,Antananarivo,-18.9166,47.5166,,,,,,,,,
Madagascar,Toamasina,-18.1818,49.405,,,,,,,,,
Madagascar,Antalaha,-14.8833,50.2833,,,,,,,,,
Madagascar,Maroantsetra,-15.4333,49.7333,,,,,,,,,
Madagascar,Mandritsara,-15.8328,48.8166,,,,,,,,,
Madagascar,Besalampy,-16.7495,44.4833,,,,,,,,,
Madagascar,Marovoay,-16.0995,46.6333,,,,,,,,,
Madagascar,Andoany,-13.4,48.2666,,,,,,,,,
Madagascar,Mahajanga,-15.67,46.345,,,,,,,,,
Madagascar,Ambanja,-13.6829,48.45,,,,,,,,,
Madagascar,Antsiranana,-12.2765,49.3115,,,,,,,,,
Madagascar,Miandrivazo,-19.5162,45.4666,,,,,,,,,
Madagascar,Mananjary,-21.2167,48.3333,,,,,,,,,
Madagascar,Morombe,-21.7391,43.3657,,,,,,,,,
Madagascar,Toliara,-23.3568,43.69,,,,,,,,,
Madagascar,Manja,-21.4329,44.3333,,,,,,,,,
Madagascar,Fianarantsoa,-21.4333,47.0833,,,,,,,,,
Madagascar,Androka,-25.0219,44.0749,,,,,,,,,
Madagascar,Bekiy,-24.2162,45.3166,,,,,,,,,
Madagascar,Antsirabe,-19.85,47.0333,,,,,,,,,
Madagascar,Antsohihy,-14.8661,47.9834,,,,,,,,,
Madagascar,Maintirano,-18.0666,44.0167,,,,,,,,,
Madagascar,Ambatondrazaka,-17.8329,48.4167,,,,,,,,,
Madagascar,Farafangana,-22.8166,47.8332,,,,,,,,,
Madagascar,Ihosy,-22.3996,46.1167,,,,,,,,,
Madagascar,Morondava,-20.2833,44.2833,,,,,,,,,
Madagascar,Tôlanaro,-25.0268,46.99,,,,,,,,,
Madagascar,Sambava,-14.2662,50.1666,,,,,,,,,
Marshall Islands,Majuro,7.103,171.38,,,,,,,,,
Macedonia,Vevčani,41.2406,20.5933,,,,,,,,,
Macedonia,Kočani,41.9164,22.4128,,,,,,,,,
Macedonia,Staro Nagoričane,42.1981,21.8286,,,,,,,,,
Macedonia,Radoviš,41.6383,22.4647,,,,,,,,,
Macedonia,Sopište,41.9547,21.4275,,,,,,,,,
Macedonia,Petrovec,41.9389,21.615,,,,,,,,,
Macedonia,Bosilovo,41.4406,22.7278,,,,,,,,,
Macedonia,Zrnovci,41.8542,22.4444,,,,,,,,,
Macedonia,Gradsko,41.5775,21.9428,,,,,,,,,
Macedonia,Lipkovo,42.1564,21.5853,,,,,,,,,
Macedonia,Lozovo,41.7839,21.9056,,,,,,,,,
Macedonia,Plasnica,41.4672,21.1231,,,,,,,,,
Macedonia,Aračinovo,42.0264,21.5619,,,,,,,,,
Macedonia,Studeničani,41.9158,21.5306,,,,,,,,,
Macedonia,Resen,41.0893,21.0109,,,,,,,,,
Macedonia,Bogovinje,41.9236,20.9136,,,,,,,,,
Macedonia,Vinica,41.8828,22.5092,,,,,,,,,
Macedonia,Belčišta,41.3028,20.8303,,,,,,,,,
Macedonia,Mogila,41.1083,21.3786,,,,,,,,,
Macedonia,Veles,41.7156,21.7756,,,,,,,,,
Macedonia,Kavadarci,41.4331,22.0119,,,,,,,,,
Macedonia,Kumanovo,42.1322,21.7144,,,,,,,,,
Macedonia,Ohrid,41.1172,20.8019,,,,,,,,,
Macedonia,Strumica,41.4375,22.6433,,,,,,,,,
Macedonia,Makedonski Brod,41.5136,21.2153,,,,,,,,,
Macedonia,Rostuša,41.61,20.6,,,,,,,,,
Macedonia,Struga,41.178,20.6778,,,,,,,,,
Macedonia,Čučer-Sandevo,42.102,21.3846,,,,,,,,,
Macedonia,Novo Selo,41.4149,22.8816,,,,,,,,,
Macedonia,Zelenikovo,41.8841,21.5885,,,,,,,,,
Macedonia,Star Dojran,41.1865,22.7203,,,,,,,,,
Macedonia,Skopje,42,21.4335,,,,,,,,,
Macedonia,Štip,41.7423,22.1979,,,,,,,,,
Macedonia,Makedonska Kamenica,42.0208,22.5876,,,,,,,,,
Macedonia,Ilinden,41.9945,21.58,,,,,,,,,
Macedonia,Demir Hisar,41.221,21.203,,,,,,,,,
Macedonia,Želino,41.9825,21.0624,,,,,,,,,
Macedonia,Prilep,41.3451,21.555,,,,,,,,,
Macedonia,Bitola,41.0391,21.3395,,,,,,,,,
Macedonia,Krivogaštani,41.3369,21.3311,,,,,,,,,
Macedonia,Kruševo,41.3694,21.2483,,,,,,,,,
Macedonia,Vasilevo,41.4741,22.643,,,,,,,,,
Macedonia,Gostivar,41.796,20.9082,,,,,,,,,
Macedonia,Vrapčište,41.8344,20.8856,,,,,,,,,
Macedonia,Novaci,41.042,21.4587,,,,,,,,,
Macedonia,Čaška,41.6487,21.6922,,,,,,,,,
Macedonia,Kratovo,42.0784,22.1807,,,,,,,,,
Macedonia,Probištip,42.0019,22.1728,,,,,,,,,
Macedonia,Debar,41.5244,20.5242,,,,,,,,,
Macedonia,Centar Župa,41.4788,20.5586,,,,,,,,,
Macedonia,Rosoman,41.5167,21.9458,,,,,,,,,
Macedonia,Jegunovce,42.0724,21.1237,,,,,,,,,
Macedonia,Demir Kapija,41.4061,22.2463,,,,,,,,,
Macedonia,Negotino,41.4846,22.0906,,,,,,,,,
Macedonia,Konče,41.4951,22.3836,,,,,,,,,
Macedonia,Dolneni,41.4258,21.454,,,,,,,,,
Macedonia,Sveti Nikole,41.8667,21.9411,,,,,,,,,
Macedonia,Valandovo,41.3174,22.56,,,,,,,,,
Macedonia,Kičevo,41.5127,20.9589,,,,,,,,,
Macedonia,Delčevo,41.9654,22.7763,,,,,,,,,
Macedonia,Tetovo,42.0092,20.9701,,,,,,,,,
Macedonia,Češinovo,41.8715,22.2896,,,,,,,,,
Macedonia,Karbinci,41.8176,22.2353,,,,,,,,,
Macedonia,Tearce,42.0767,21.0531,,,,,,,,,
Macedonia,Kriva Palanka,42.2009,22.3324,,,,,,,,,
Macedonia,Rankovce,42.1686,22.1166,,,,,,,,,
Macedonia,Pehčevo,41.7623,22.8892,,,,,,,,,
Macedonia,Gevgelija,41.1417,22.5014,,,,,,,,,
Macedonia,Bogdanci,41.2031,22.5756,,,,,,,,,
Macedonia,Berovo,41.7031,22.8578,,,,,,,,,
Macedonia,Brvenica,41.9672,20.9808,,,,,,,,,
Mali,Aguelhok,19.4549,0.8564,,,,,,,,,
Mali,Bamako,12.65,-8,,,,,,,,,
Mali,Kidal,18.4411,1.4078,,,,,,,,,
Mali,Bourem,16.9004,-0.35,,,,,,,,,
Mali,Mopti,14.49,-4.18,,,,,,,,,
Mali,Gao,16.2666,-0.05,,,,,,,,,
Mali,Satadougou,12.617,-11.4066,,,,,,,,,
Mali,Koulikoro,12.8833,-7.55,,,,,,,,,
Mali,Sikasso,11.3204,-5.68,,,,,,,,,
Mali,Araouane,18.9,-3.53,,,,,,,,,
Mali,Ségou,13.44,-6.26,,,,,,,,,
Mali,Timbuktu,16.7666,-3.0166,,,,,,,,,
Mali,Markala,13.6704,-6.07,,,,,,,,,
Mali,Taoudenni,22.6666,-3.9834,,,,,,,,,
Mali,Kayes,14.45,-11.44,,,,,,,,,
Mali,Sokolo,14.7337,-6.1333,,,,,,,,,
Mali,Kita,13.0504,-9.4833,,,,,,,,,
Mali,Nara,15.18,-7.28,,,,,,,,,
Mali,Kati,12.7504,-8.08,,,,,,,,,
Mali,Kangaba,11.9404,-8.44,,,,,,,,,
Mali,San,13.3004,-4.9,,,,,,,,,
Mali,Bougouni,11.4204,-7.49,,,,,,,,,
Mali,Koutiala,12.3904,-5.47,,,,,,,,,
Mali,Djenné,13.9,-4.55,,,,,,,,,
Mali,Yélimané,15.1337,-10.5666,,,,,,,,,
Mali,Bafoulabé,13.8004,-10.82,,,,,,,,,
Mali,Nioro du Sahel,15.2304,-9.59,,,,,,,,,
Mali,Goundam,16.417,-3.6666,,,,,,,,,
Mali,Ménaka,15.9167,2.4,,,,,,,,,
Mali,Tessalit,20.2014,1.0888,,,,,,,,,
Mali,Banamba,13.5504,-7.45,,,,,,,,,
Burma,Rangoon,16.7834,96.1667,,,,,,,,,
Burma,Allanmyo,19.3783,95.2279,,,,,,,,,
Burma,Mudon,16.2618,97.7215,,,,,,,,,
Burma,Mawlamyine,16.5004,97.67,,,,,,,,,
Burma,Phyarpon,16.2933,95.6829,,,,,,,,,
Burma,Labutta,16.1619,94.7014,,,,,,,,,
Burma,Dawei,14.098,98.195,,,,,,,,,
Burma,Myeik,12.4541,98.6115,,,,,,,,,
Burma,Ye,15.2533,97.8679,,,,,,,,,
Burma,Namtu,23.0837,97.4,,,,,,,,,
Burma,Hinthada,17.6483,95.4679,,,,,,,,,
Burma,Thongwa,16.7547,96.5193,,,,,,,,,
Burma,Bago,17.32,96.515,,,,,,,,,
Burma,Pathein,16.7704,94.75,,,,,,,,,
Burma,Yandoon,17.0433,95.6429,,,,,,,,,
Burma,Wakema,16.6133,95.1829,,,,,,,,,
Burma,Pyay,18.8165,95.2114,,,,,,,,,
Burma,Chauk,20.9085,94.823,,,,,,,,,
Burma,Myitkyina,25.3596,97.3928,,,,,,,,,
Burma,Monywa,22.105,95.15,,,,,,,,,
Burma,Naypyidaw,19.7666,96.1186,,,,,,,,,
Burma,Loikaw,19.665,97.206,,,,,,,,,
Burma,Yaynangyoung,20.4615,94.881,,,,,,,,,
Burma,Kyaukphyu,19.429,93.5494,,,,,,,,,
Burma,Magway,20.1445,94.9196,,,,,,,,,
Burma,Shwebo,22.5783,95.6929,,,,,,,,,
Burma,Sagaing,21.88,95.962,,,,,,,,,
Burma,Myingyan,21.4618,95.3914,,,,,,,,,
Burma,Pakokku,21.332,95.0866,,,,,,,,,
Burma,Mandalay,21.97,96.085,,,,,,,,,
Burma,Taunggyi,20.782,97.038,,,,,,,,,
Burma,Pyu,18.4779,96.4379,,,,,,,,,
Burma,Taungoo,18.9483,96.4179,,,,,,,,,
Burma,Letpadan,17.7819,95.7415,,,,,,,,,
Burma,Sittwe,20.14,92.88,,,,,,,,,
Burma,Pa-an,16.85,97.6167,,,,,,,,,
Burma,Hakha,22.65,93.6167,,,,,,,,,
Mongolia,Olgiy,48.9337,89.95,,,,,,,,,
Mongolia,Mandalgovi,45.75,106.266,,,,,,,,,
Mongolia,Ulaanbaatar,47.9167,106.9166,,,,,,,,,
Mongolia,Mörön,49.6453,100.1544,,,,,,,,,
Mongolia,Darhan,49.6167,106.35,,,,,,,,,
Mongolia,Erdenet,49.0533,104.1183,,,,,,,,,
Mongolia,Uliastay,47.75,96.8167,,,,,,,,,
Mongolia,Choyr,46.3611,108.3611,,,,,,,,,
Mongolia,Altay,46.3722,96.2583,,,,,,,,,
Mongolia,Buyant-Uhaa,44.8666,110.15,,,,,,,,,
Mongolia,Choybalsan,48.0666,114.506,,,,,,,,,
Mongolia,Ulaangom,49.9833,92.0666,,,,,,,,,
Mongolia,Bulgan,48.8106,103.5317,,,,,,,,,
Mongolia,Arvayheer,46.25,102.7666,,,,,,,,,
Mongolia,Tsetserleg,47.4769,101.4502,,,,,,,,,
Mongolia,Bayankhongor,46.3,100.9833,,,,,,,,,
Mongolia,Darhan,49.4867,105.9228,,,,,,,,,
Mongolia,Dzuunharaa,48.8666,106.4666,,,,,,,,,
Mongolia,Dzuunmod,47.711,106.947,,,,,,,,,
Mongolia,Ondorhaan,47.3167,110.65,,,,,,,,,
Mongolia,Dalandzadgad,43.5708,104.425,,,,,,,,,
Mongolia,Ulaan-Uul,44.3337,111.2333,,,,,,,,,
Mongolia,Hodrogo,48.9664,96.7833,,,,,,,,,
Mongolia,Baruun Urt,46.7,113.2833,,,,,,,,,
Mongolia,Suchboatar,50.25,106.2,,,,,,,,,
Mongolia,Dund-Us,48.0166,91.6333,,,,,,,,,
Mongolia,Dalandzadgad,43.5836,104.4403,,,,,,,,,
Macau,Macau,22.203,113.545,,,,,,,,,
Martinique,Fort-de-France,14.6104,-61.08,,,,,,,,,
Mauritania,Bogue,16.5904,-14.27,,,,,,,,,
Mauritania,Chegga,25.3804,-5.78,,,,,,,,,
Mauritania,Boutilimit,17.5504,-14.7,,,,,,,,,
Mauritania,Timbedra,16.2504,-8.1666,,,,,,,,,
Mauritania,Bir Mogrein,25.2333,-11.5833,,,,,,,,,
Mauritania,Fderik,22.679,-12.707,,,,,,,,,
Mauritania,Sélibaby,15.167,-12.1833,,,,,,,,,
Mauritania,Aleg,17.058,-13.909,,,,,,,,,
Mauritania,Akjoujt,19.747,-14.391,,,,,,,,,
Mauritania,Kiffa,16.62,-11.4,,,,,,,,,
Mauritania,Nema,16.6171,-7.25,,,,,,,,,
Mauritania,Nouadhibou,20.9,-17.056,,,,,,,,,
Mauritania,Rosso,16.524,-15.8127,,,,,,,,,
Mauritania,Tidjikdja,18.55,-11.4166,,,,,,,,,
Mauritania,Atar,20.5166,-13.05,,,,,,,,,
Mauritania,Kaédi,16.1503,-13.5037,,,,,,,,,
Mauritania,Zouirat,22.7304,-12.4833,,,,,,,,,
Mauritania,Arafat,18.0583,-15.9621,,,,,,,,,
Mauritania,Dar Naim,18.0973,-15.9327,,,,,,,,,
Mauritania,Tevragh Zeina,18.0989,-15.9885,,,,,,,,,
Mauritania,Nouakchott,18.0864,-15.9753,,,,,,,,,
Mauritania,Ayoun el Atrous,16.6666,-9.6167,,,,,,,,,
Montserrat,Plymouth,16.7,-62.2167,,,,,,,,,
Malta,Birżebbuġa,35.8258,14.5269,,,,,,,,,
Malta,Marsaskala,35.8669,14.5619,,,,,,,,,
Malta,Marsaxlokk,35.8419,14.5431,,,,,,,,,
Malta,Kirkop,35.8422,14.4853,,,,,,,,,
Malta,Pietà,35.8947,14.495,,,,,,,,,
Malta,Żejtun,35.8558,14.5331,,,,,,,,,
Malta,Attard,35.8897,14.4425,,,,,,,,,
Malta,Pembroke,35.9306,14.4764,,,,,,,,,
Malta,Żebbuġ,35.8719,14.4411,,,,,,,,,
Malta,Ta’ Xbiex,35.8992,14.4944,,,,,,,,,
Malta,Sliema,35.9125,14.5019,,,,,,,,,
Malta,San Lawrenz,36.0556,14.2036,,,,,,,,,
Malta,Imqabba,35.8461,14.4672,,,,,,,,,
Malta,Imdina,35.8869,14.4025,,,,,,,,,
Malta,Qala,36.0361,14.3094,,,,,,,,,
Malta,Imtarfa,35.8933,14.3989,,,,,,,,,
Malta,Żurrieq,35.8311,14.4742,,,,,,,,,
Malta,Gudja,35.8492,14.5031,,,,,,,,,
Malta,Sannat,36.0244,14.2428,,,,,,,,,
Malta,Valletta,35.8997,14.5147,,,,,,,,,
Malta,Żabbar,35.8761,14.535,,,,,,,,,
Malta,Luqa,35.8589,14.4886,,,,,,,,,
Malta,Qormi,35.8783,14.4719,,,,,,,,,
Malta,Imġarr,35.9206,14.3664,,,,,,,,,
Malta,Saint Paul’s Bay,35.9483,14.4006,,,,,,,,,
Malta,Qrendi,35.8347,14.4583,,,,,,,,,
Malta,Munxar,36.03,14.2333,,,,,,,,,
Malta,Ħamrun,35.8847,14.4844,,,,,,,,,
Malta,Naxxar,35.9136,14.4436,,,,,,,,,
Malta,Għaxaq,35.8489,14.5167,,,,,,,,,
Malta,Għasri,36.0578,14.2264,,,,,,,,,
Malta,Victoria,36.0444,14.2397,,,,,,,,,
Malta,Iklin,35.9092,14.4522,,,,,,,,,
Malta,Għargħur,35.9242,14.4519,,,,,,,,,
Malta,Dingli,35.8614,14.3822,,,,,,,,,
Malta,Siġġiewi,35.8556,14.4364,,,,,,,,,
Malta,Xewkija,36.0328,14.2581,,,,,,,,,
Malta,Lija,35.9006,14.4464,,,,,,,,,
Malta,Safi,35.8331,14.4847,,,,,,,,,
Malta,Senglea,35.8875,14.5169,,,,,,,,,
Malta,Xagħra,36.05,14.2644,,,,,,,,,
Malta,Xgħajra,35.8856,14.5475,,,,,,,,,
Malta,Żebbuġ,36.0722,14.2358,,,,,,,,,
Malta,Gżira,35.9058,14.4881,,,,,,,,,
Malta,Imsida,35.8925,14.4828,,,,,,,,,
Malta,Kalkara,35.8892,14.5328,,,,,,,,,
Malta,Kerċem,36.0419,14.2267,,,,,,,,,
Malta,Mellieħa,35.9564,14.3622,,,,,,,,,
Malta,Mosta,35.9092,14.4256,,,,,,,,,
Malta,Nadur,36.0378,14.2942,,,,,,,,,
Malta,Paola,35.8731,14.4989,,,,,,,,,
Malta,Rabat,35.8822,14.3981,,,,,,,,,
Malta,Marsa,35.8792,14.4953,,,,,,,,,
Malta,San Ġiljan,35.9197,14.4844,,,,,,,,,
Malta,San Ġwann,35.9056,14.4761,,,,,,,,,
Malta,Santa Luċija,36.0431,14.2172,,,,,,,,,
Malta,Santa Venera,35.8908,14.4742,,,,,,,,,
Malta,Swieqi,35.9225,14.48,,,,,,,,,
Malta,Tarxien,35.8658,14.515,,,,,,,,,
Malta,Balzan,35.9003,14.455,,,,,,,,,
Malta,Vittoriosa,35.8922,14.5183,,,,,,,,,
Malta,Birkirkara,35.8972,14.4611,,,,,,,,,
Malta,Cospicua,35.8856,14.5275,,,,,,,,,
Malta,Fgura,35.8703,14.5133,,,,,,,,,
Malta,Floriana,35.8958,14.5083,,,,,,,,,
Malta,Fontana,36.0375,14.2361,,,,,,,,,
Malta,Għajnsielem,36.0264,14.285,,,,,,,,,
Malta,Għarb,36.06,14.2089,,,,,,,,,
Mauritius,Port Louis,-20.1666,57.5,,,,,,,,,
Mauritius,Curepipe,-20.3162,57.5166,,,,,,,,,
Maldives,Malé,4.1667,73.4999,,,,,,,,,
Maldives,Eydhafushi,5.1038,73.0699,,,,,,,,,
Maldives,Felidhoo,3.4718,73.547,,,,,,,,,
Maldives,Funadhoo,6.1509,73.2901,,,,,,,,,
Maldives,Hithadhoo,-0.6,73.0833,,,,,,,,,
Maldives,Kudahuvadhoo,2.6717,72.8936,,,,,,,,,
Maldives,Kulhudhuffushi,6.6223,73.0702,,,,,,,,,
Maldives,Mahibadhoo,3.7571,72.9689,,,,,,,,,
Maldives,Manadhoo,5.7669,73.4136,,,,,,,,,
Maldives,Muli,2.9217,73.5811,,,,,,,,,
Maldives,Naifaru,5.4442,73.3662,,,,,,,,,
Maldives,Thinadhoo,0.5303,72.9967,,,,,,,,,
Maldives,Un’goofaaru,5.6681,73.0302,,,,,,,,,
Maldives,Veymandoo,2.1878,73.095,,,,,,,,,
Maldives,Fonadhoo,1.8342,73.5031,,,,,,,,,
Maldives,Rasdhoo,4.2631,72.9919,,,,,,,,,
Maldives,Thulusdhoo,4.3742,73.6517,,,,,,,,,
Maldives,Dhihdhoo,6.8874,73.114,,,,,,,,,
Maldives,Foammulah,-0.3,73.4256,,,,,,,,,
Maldives,Viligili,0.7539,73.4353,,,,,,,,,
Maldives,Nilandhoo,3.0567,72.89,,,,,,,,,
Malawi,Thyolo,-16.0703,35.1471,,,,,,,,,
Malawi,Mwanza,-15.6167,34.5167,,,,,,,,,
Malawi,Chiradzulu,-15.7,35.1833,,,,,,,,,
Malawi,Karonga,-9.9329,33.9333,,,,,,,,,
Malawi,Neno,-15.3981,34.6534,,,,,,,,,
Malawi,Zomba,-15.39,35.31,,,,,,,,,
Malawi,Chikwawa,-16.042,34.8019,,,,,,,,,
Malawi,Mulanje,-16.0333,35.5,,,,,,,,,
Malawi,Blantyre,-15.79,34.9899,,,,,,,,,
Malawi,Chiromo,-16.55,35.1332,,,,,,,,,
Malawi,Phalombe,-15.8064,35.6507,,,,,,,,,
Malawi,Nsanje,-16.9167,35.2667,,,,,,,,,
Malawi,Nkhata Bay,-11.5996,34.3,,,,,,,,,
Malawi,Rumphi,-11.0195,33.8546,,,,,,,,,
Malawi,Chitipa,-9.7162,33.2666,,,,,,,,,
Malawi,Mzuzu,-11.46,34.02,,,,,,,,,
Malawi,Mzimba,-11.9,33.6,,,,,,,,,
Malawi,Ntchisi,-13.3753,34.0036,,,,,,,,,
Malawi,Dowa,-13.6532,33.9385,,,,,,,,,
Malawi,Mchinji,-13.8,32.9,,,,,,,,,
Malawi,Nkhotakota,-12.9163,34.3,,,,,,,,,
Malawi,Kasungu,-13.0364,33.4822,,,,,,,,,
Malawi,Ntcheu,-14.8167,34.6333,,,,,,,,,
Malawi,Dedza,-14.3667,34.3333,,,,,,,,,
Malawi,Salima,-13.7829,34.4333,,,,,,,,,
Malawi,Lilongwe,-13.9833,33.7833,,,,,,,,,
Malawi,Mangochi,-14.4596,35.27,,,,,,,,,
Malawi,Balaka,-14.9889,34.9591,,,,,,,,,
Malawi,Machinga,-14.9667,35.5167,,,,,,,,,
Mexico,Nacozari de García,30.42,-109.65,,,,,,,,,
Mexico,Nueva Rosita,27.95,-101.22,,,,,,,,,
Mexico,San Felipe,31.0241,-114.8496,,,,,,,,,
Mexico,Zacatecas,22.7704,-102.58,,,,,,,,,
Mexico,Irapuato,20.67,-101.5,,,,,,,,,
Mexico,Vicente Guerrero,30.7641,-116.0093,,,,,,,,,
Mexico,San Quintín,30.4837,-115.95,,,,,,,,,
Mexico,Chetumal,18.5,-88.3,,,,,,,,,
Mexico,Esperanza,27.58,-109.93,,,,,,,,,
Mexico,Izamal,20.9304,-89.0201,,,,,,,,,
Mexico,Ticul,20.4004,-89.53,,,,,,,,,
Mexico,Villahermosa,18,-92.9,,,,,,,,,
Mexico,Mazatlán,23.2211,-106.42,,,,,,,,,
Mexico,Ciudad Victoria,23.72,-99.13,,,,,,,,,
Mexico,Mexicali,32.65,-115.48,,,,,,,,,
Mexico,Aguascalientes,21.8795,-102.2904,,,,,,,,,
Mexico,Chihuahua,28.645,-106.085,,,,,,,,,
Mexico,Guanajuato,21.0204,-101.28,,,,,,,,,
Mexico,Chilpancingo,17.55,-99.5,,,,,,,,,
Mexico,Pachuca,20.1704,-98.73,,,,,,,,,
Mexico,Guadalajara,20.67,-103.33,,,,,,,,,
Mexico,Cuernavaca,18.9211,-99.24,,,,,,,,,
Mexico,Monterrey,25.67,-100.33,,,,,,,,,
Mexico,Lázaro Cárdenas,17.9587,-102.2,,,,,,,,,
Mexico,Miahuatlán,16.33,-96.6,,,,,,,,,
Mexico,Mitla,16.917,-96.4,,,,,,,,,
Mexico,Valladolid,20.6704,-88.2,,,,,,,,,
Mexico,Ciudad Constitución,25.04,-111.66,,,,,,,,,
Mexico,Villa Unión,23.2,-106.23,,,,,,,,,
Mexico,Eldorado,24.3305,-107.37,,,,,,,,,
Mexico,Tekax,20.2,-89.28,,,,,,,,,
Mexico,Montemorelos,25.19,-99.84,,,,,,,,,
Mexico,Xalapa,19.53,-96.92,,,,,,,,,
Mexico,Teziutlán,19.8204,-97.36,,,,,,,,,
Mexico,Motul,21.1,-89.28,,,,,,,,,
Mexico,Mérida,20.9666,-89.6166,,,,,,,,,
Mexico,Guerrero Negro,27.9904,-114.17,,,,,,,,,
Mexico,Saltillo,25.42,-101.005,,,,,,,,,
Mexico,Punta Prieta,28.9337,-114.1666,,,,,,,,,
Mexico,Salina Cruz,16.1671,-95.2,,,,,,,,,
Mexico,Durango,24.0311,-104.67,,,,,,,,,
Mexico,Acatlan,18.2,-98.05,,,,,,,,,
Mexico,Tepic,21.5054,-104.88,,,,,,,,,
Mexico,Tecuala,22.4004,-105.46,,,,,,,,,
Mexico,Ayutla,16.9004,-99.22,,,,,,,,,
Mexico,Huajuapan de León,17.8104,-97.79,,,,,,,,,
Mexico,Pochutla,15.7304,-96.47,,,,,,,,,
Mexico,Colima,19.23,-103.72,,,,,,,,,
Mexico,Autlan,19.77,-104.37,,,,,,,,,
Mexico,Coalcoman,18.7804,-103.15,,,,,,,,,
Mexico,Apatzingán,19.08,-102.35,,,,,,,,,
Mexico,Halachó,20.48,-90.08,,,,,,,,,
Mexico,Peto,20.13,-88.92,,,,,,,,,
Mexico,Papasquiaro,24.8304,-105.34,,,,,,,,,
Mexico,Puerto Escondido,15.8592,-97.0659,,,,,,,,,
Mexico,Hermosillo,29.0989,-110.9541,,,,,,,,,
Mexico,Juchitan,16.43,-95.02,,,,,,,,,
Mexico,San Luis Potosí,22.17,-101,,,,,,,,,
Mexico,Culiacán,24.83,-107.38,,,,,,,,,
Mexico,Uruapan,19.4204,-102.07,,,,,,,,,
Mexico,Tehuantepec,16.33,-95.23,,,,,,,,,
Mexico,Salamanca,20.5704,-101.2,,,,,,,,,
Mexico,Mexico City,19.4424,-99.131,,,,,,,,,
Mexico,Zamora,19.9804,-102.28,,,,,,,,,
Mexico,Tlaxiaco,17.2704,-97.68,,,,,,,,,
Mexico,Petatlán,17.5204,-101.27,,,,,,,,,
Mexico,La Cruz,23.9204,-106.9,,,,,,,,,
Mexico,Allende,28.33,-100.85,,,,,,,,,
Mexico,Agua Prieta,31.3223,-109.563,,,,,,,,,
Mexico,Piedras Negras,28.7076,-100.5317,,,,,,,,,
Mexico,Reynosa,26.08,-98.3,,,,,,,,,
Mexico,Ojinaga,29.5404,-104.41,,,,,,,,,
Mexico,La Paz,24.14,-110.32,,,,,,,,,
Mexico,Tapachula,14.9,-92.27,,,,,,,,,
Mexico,Escuintla,15.33,-92.63,,,,,,,,,
Mexico,Atlixco,18.9,-98.45,,,,,,,,,
Mexico,Orizaba,18.85,-97.13,,,,,,,,,
Mexico,Taxco,18.5704,-99.62,,,,,,,,,
Mexico,Iguala,18.37,-99.54,,,,,,,,,
Mexico,Cabo San Lucas,22.8928,-109.9045,,,,,,,,,
Mexico,Villanueva,22.35,-102.88,,,,,,,,,
Mexico,Tecpan,17.25,-100.68,,,,,,,,,
Mexico,Atoyac,17.2,-100.43,,,,,,,,,
Mexico,Jaltipan,17.94,-94.74,,,,,,,,,
Mexico,La Barca,20.2804,-102.56,,,,,,,,,
Mexico,Querétaro,20.63,-100.38,,,,,,,,,
Mexico,León,21.15,-101.7,,,,,,,,,
Mexico,Pijijiapan,15.6904,-93.22,,,,,,,,,
Mexico,Campeche,19.83,-90.5,,,,,,,,,
Mexico,Toluca,19.3304,-99.67,,,,,,,,,
Mexico,Tlaxcala,19.32,-98.23,,,,,,,,,
Mexico,Oaxaca,17.0827,-96.6699,,,,,,,,,
Mexico,Puebla,19.05,-98.2,,,,,,,,,
Mexico,Tuxtla Gutiérrez,16.75,-93.15,,,,,,,,,
Mexico,Lagos de Moreno,21.3704,-101.93,,,,,,,,,
Mexico,Progreso,21.2833,-89.6666,,,,,,,,,
Mexico,Tuxpam,20.9604,-97.41,,,,,,,,,
Mexico,Balancán,17.8,-91.53,,,,,,,,,
Mexico,Tizimín,21.1304,-88.15,,,,,,,,,
Mexico,Los Mochis,25.79,-109,,,,,,,,,
Mexico,Altata,24.636,-107.9162,,,,,,,,,
Mexico,Navajoa,27.0819,-109.4546,,,,,,,,,
Mexico,Santa Barbara,26.8004,-105.82,,,,,,,,,
Mexico,Ciudad Hidalgo,19.68,-100.57,,,,,,,,,
Mexico,Parras,25.4204,-102.1799,,,,,,,,,
Mexico,Hidalgo del Parral,26.9334,-105.6666,,,,,,,,,
Mexico,Delicias,28.2,-105.5,,,,,,,,,
Mexico,Ensenada,31.87,-116.62,,,,,,,,,
Mexico,Linares,24.8604,-99.57,,,,,,,,,
Mexico,San Juan del Río,20.38,-100,,,,,,,,,
Mexico,Minatitlán,17.9805,-94.53,,,,,,,,,
Mexico,Villa Ahumada,30.6104,-106.51,,,,,,,,,
Mexico,Tehuacan,18.4504,-97.38,,,,,,,,,
Mexico,Ciudad del Carmen,18.6537,-91.8245,,,,,,,,,
Mexico,Morelia,19.7334,-101.1895,,,,,,,,,
Mexico,Escuinapa,22.8504,-105.8,,,,,,,,,
Mexico,Nezahualcoyotl,19.41,-99.03,,,,,,,,,
Mexico,Gómez Palacio,25.5701,-103.5,,,,,,,,,
Mexico,Paraíso,18.4,-93.23,,,,,,,,,
Mexico,Frontera,18.5804,-92.65,,,,,,,,,
Mexico,Tenosique,17.4804,-91.43,,,,,,,,,
Mexico,Tecoman,18.9204,-103.88,,,,,,,,,
Mexico,Aldama,22.9204,-98.07,,,,,,,,,
Mexico,Loreto,26.0133,-111.3517,,,,,,,,,
Mexico,Santa Rosalía,27.3171,-112.2834,,,,,,,,,
Mexico,El Fuerte,26.4204,-108.62,,,,,,,,,
Mexico,Guasave,25.5705,-108.47,,,,,,,,,
Mexico,Manzanillo,19.0496,-104.3231,,,,,,,,,
Mexico,Celaya,20.53,-100.8,,,,,,,,,
Mexico,San Pedro de las Colonias,25.7592,-102.9827,,,,,,,,,
Mexico,Monclova,26.9,-101.42,,,,,,,,,
Mexico,Torreón,25.5701,-103.42,,,,,,,,,
Mexico,Nogales,31.305,-110.945,,,,,,,,,
Mexico,Rio Verde,21.93,-99.98,,,,,,,,,
Mexico,Tamuín,21.9804,-98.75,,,,,,,,,
Mexico,Tamazunchale,21.2704,-98.78,,,,,,,,,
Mexico,Ciudad Valles,21.98,-99.02,,,,,,,,,
Mexico,Cardenas,22,-99.67,,,,,,,,,
Mexico,Guamúchil,25.4704,-108.09,,,,,,,,,
Mexico,Tijuana,32.5,-117.08,,,,,,,,,
Mexico,Cozumel,20.51,-86.95,,,,,,,,,
Mexico,Isla Mujeres,21.2084,-86.7115,,,,,,,,,
Mexico,Cancún,21.17,-86.83,,,,,,,,,
Mexico,Felipe Carrillo Puerto,19.5804,-88.05,,,,,,,,,
Mexico,Champotón,19.3504,-90.72,,,,,,,,,
Mexico,Cuencame,24.8704,-103.7,,,,,,,,,
Mexico,Canatlan,24.52,-104.78,,,,,,,,,
Mexico,Compostela,21.2304,-104.9,,,,,,,,,
Mexico,Santiago Ixcuintla,21.82,-105.22,,,,,,,,,
Mexico,Tuxpan,21.9304,-105.27,,,,,,,,,
Mexico,Matehuala,23.6604,-100.65,,,,,,,,,
Mexico,Fresnillo,23.1704,-102.86,,,,,,,,,
Mexico,Valparaíso,22.7704,-103.57,,,,,,,,,
Mexico,Sabinas Hidalgo,26.51,-100.18,,,,,,,,,
Mexico,Ascensión,31.1,-107.98,,,,,,,,,
Mexico,Ciudad Juárez,31.6904,-106.49,,,,,,,,,
Mexico,Juan Aldama,24.2904,-103.39,,,,,,,,,
Mexico,Caborca,30.7161,-112.1642,,,,,,,,,
Mexico,Magdalena,30.6166,-111.05,,,,,,,,,
Mexico,Mazatlán,29.0171,-110.1333,,,,,,,,,
Mexico,Puerto Vallarta,20.6771,-105.245,,,,,,,,,
Mexico,Zumpango,19.8104,-99.11,,,,,,,,,
Mexico,Nuevo Laredo,27.5,-99.55,,,,,,,,,
Mexico,Matamoros,25.88,-97.5,,,,,,,,,
Mexico,San Fernando,24.8504,-98.16,,,,,,,,,
Mexico,Ciudad Madero,22.3189,-97.8361,,,,,,,,,
Mexico,Tampico,22.3,-97.87,,,,,,,,,
Mexico,Ciudad Mante,22.7334,-98.95,,,,,,,,,
Mexico,Tula,23.0004,-99.72,,,,,,,,,
Mexico,Ciudad Guzman,19.7104,-103.46,,,,,,,,,
Mexico,Ciudad Camargo,27.6904,-105.1701,,,,,,,,,
Mexico,Cuauhtémoc,28.4257,-106.8696,,,,,,,,,
Mexico,Nuevo Casas Grandes,30.4185,-107.9119,,,,,,,,,
Mexico,Poza Rica de Hidalgo,20.5504,-97.47,,,,,,,,,
Mexico,Ometepec,16.6801,-98.42,,,,,,,,,
Mexico,Ciudad Altamirano,18.3204,-100.65,,,,,,,,,
Mexico,Huatabampo,26.8304,-109.63,,,,,,,,,
Mexico,Ciudad Obregon,27.4666,-109.925,,,,,,,,,
Mexico,Guaymas,27.93,-110.89,,,,,,,,,
Mexico,Pánuco,22.0604,-98.19,,,,,,,,,
Mexico,Cananea,30.9904,-110.3,,,,,,,,,
Mexico,Acapulco,16.85,-99.916,,,,,,,,,
Mexico,San Cristobal de Las Casas,16.75,-92.6334,,,,,,,,,
Mexico,Veracruz,19.1773,-96.16,,,,,,,,,
Mexico,Coatzacoalcos,18.1204,-94.42,,,,,,,,,
Mexico,Santiago Tuxtla,18.4704,-95.3,,,,,,,,,
Mexico,Córdoba,18.9204,-96.92,,,,,,,,,
Mexico,Nautla,20.2166,-96.7834,,,,,,,,,
Malaysia,Sibu,2.303,111.843,,,,,,,,,
Malaysia,Shah Alam,3.0667,101.55,,,,,,,,,
Malaysia,Bintulu,3.1664,113.036,,,,,,,,,
Malaysia,Kuching,1.53,110.33,,,,,,,,,
Malaysia,Victoria,5.2767,115.2417,,,,,,,,,
Malaysia,Taiping,4.865,100.72,,,,,,,,,
Malaysia,Chukai,4.2332,103.4479,,,,,,,,,
Malaysia,Kuala Lumpur,3.1667,101.7,,,,,,,,,
Malaysia,Kangar,6.433,100.19,,,,,,,,,
Malaysia,Alor Setar,6.1133,100.3729,,,,,,,,,
Malaysia,George Town,5.4136,100.3294,,,,,,,,,
Malaysia,Butterworth,5.4171,100.4,,,,,,,,,
Malaysia,Sungai Petani,5.6497,100.4793,,,,,,,,,
Malaysia,Sandakan,5.843,118.108,,,,,,,,,
Malaysia,Lahad Datu,5.0464,118.336,,,,,,,,,
Malaysia,Kota Baharu,6.12,102.23,,,,,,,,,
Malaysia,Johor Bahru,1.48,103.73,,,,,,,,,
Malaysia,Keluang,2.0383,103.3179,,,,,,,,,
Malaysia,Kuala Terengganu,5.3304,103.12,,,,,,,,,
Malaysia,Ipoh,4.6,101.065,,,,,,,,,
Malaysia,Kuantan,3.83,103.32,,,,,,,,,
Malaysia,Kota Kinabalu,5.98,116.11,,,,,,,,,
Malaysia,Tawau,4.271,117.896,,,,,,,,,
Malaysia,Kuala Lipis,4.184,102.042,,,,,,,,,
Malaysia,Teluk Intan,4.0119,101.0314,,,,,,,,,
Malaysia,Malacca,2.2064,102.2465,,,,,,,,,
Malaysia,Muar,2.0337,102.5666,,,,,,,,,
Malaysia,Miri,4.3999,113.9845,,,,,,,,,
Malaysia,Seremban,2.7105,101.94,,,,,,,,,
Malaysia,Putrajaya,2.914,101.7019,,,,,,,,,
Malaysia,Raub,3.7927,101.8423,,,,,,,,,
Malaysia,Batu Pahat,1.8504,102.9333,,,,,,,,,
Malaysia,Kelang,3.0204,101.55,,,,,,,,,
Mozambique,Espungabera,-20.4501,32.77,,,,,,,,,
Mozambique,Quelimane,-17.88,36.89,,,,,,,,,
Mozambique,Nicuadala,-17.6077,36.8197,,,,,,,,,
Mozambique,Mapai,-22.8427,31.9631,,,,,,,,,
Mozambique,Mocimboa,-11.3196,40.35,,,,,,,,,
Mozambique,Maxixe,-23.866,35.3886,,,,,,,,,
Mozambique,Mocambique,-15.0399,40.6822,,,,,,,,,
Mozambique,Nampula,-15.136,39.293,,,,,,,,,
Mozambique,Massangena,-21.5373,32.9564,,,,,,,,,
Mozambique,Quissico,-24.7257,34.766,,,,,,,,,
Mozambique,Chiramba,-16.8921,34.6559,,,,,,,,,
Mozambique,Xai-Xai,-25.04,33.64,,,,,,,,,
Mozambique,Ligonha,-15.1757,37.74,,,,,,,,,
Mozambique,Vilanculos,-21.9995,35.3166,,,,,,,,,
Mozambique,Dondo,-19.6196,34.73,,,,,,,,,
Mozambique,Macia,-25.0195,33.09,,,,,,,,,
Mozambique,Moatize,-16.0995,33.95,,,,,,,,,
Mozambique,Angoche,-16.23,39.91,,,,,,,,,
Mozambique,Cuamba,-14.7896,36.54,,,,,,,,,
Mozambique,Inhambane,-23.858,35.3398,,,,,,,,,
Mozambique,Beira,-19.82,34.87,,,,,,,,,
Mozambique,Lichinga,-13.3,35.24,,,,,,,,,
Mozambique,Pemba,-12.983,40.5323,,,,,,,,,
Mozambique,Panda,-24.0629,34.7303,,,,,,,,,
Mozambique,Manica,-18.9696,32.88,,,,,,,,,
Mozambique,Nacala,-14.5186,40.715,,,,,,,,,
Mozambique,Montepuez,-13.1196,39,,,,,,,,,
Mozambique,Maputo,-25.9553,32.5892,,,,,,,,,
Mozambique,Mocuba,-16.8496,38.26,,,,,,,,,
Mozambique,Marrupa,-13.1984,37.4995,,,,,,,,,
Mozambique,Chimoio,-19.12,33.47,,,,,,,,,
Mozambique,Tete,-16.17,33.58,,,,,,,,,
Mozambique,Matola,-25.9696,32.46,,,,,,,,,
Namibia,Oshikango,-17.3995,15.88,,,,,,,,,
Namibia,Okahandja,-21.9796,16.91,,,,,,,,,
Namibia,Ongwediva,-17.78,15.77,,,,,,,,,
Namibia,Windhoek,-22.57,17.0835,,,,,,,,,
Namibia,Oranjemund,-28.5495,16.43,,,,,,,,,
Namibia,Otavi,-19.64,17.342,,,,,,,,,
Namibia,Rehoboth,-23.3196,17.08,,,,,,,,,
Namibia,Bethanie,-26.4995,17.15,,,,,,,,,
Namibia,Karasburg,-28.0196,18.74,,,,,,,,,
Namibia,Omaruru,-21.436,15.951,,,,,,,,,
Namibia,Walvis Bay,-22.9575,14.5053,,,,,,,,,
Namibia,Karibib,-21.939,15.853,,,,,,,,,
Namibia,Lüderitz,-26.648,15.1594,,,,,,,,,
Namibia,Grootfontein,-19.5666,18.1166,,,,,,,,,
Namibia,Usakos,-21.9995,15.58,,,,,,,,,
Namibia,Outjo,-20.1095,16.14,,,,,,,,,
Namibia,Katima Mulilo,-17.4996,24.26,,,,,,,,,
Namibia,Outapi,-17.5,14.9833,,,,,,,,,
Namibia,Eenhana,-17.4667,16.3333,,,,,,,,,
Namibia,Oshakati,-17.7833,15.6833,,,,,,,,,
Namibia,Gobabis,-22.455,18.963,,,,,,,,,
Namibia,Maltahöhe,-24.84,16.94,,,,,,,,,
Namibia,Opuwo,-18.0596,13.82,,,,,,,,,
Namibia,Swakopmund,-22.6689,14.535,,,,,,,,,
Namibia,Keetmanshoop,-26.5739,18.13,,,,,,,,,
Namibia,Otjiwarongo,-20.4595,16.64,,,,,,,,,
Namibia,Mariental,-24.6196,17.9599,,,,,,,,,
Namibia,Rundu,-17.92,19.7499,,,,,,,,,
Namibia,Nkurenkuru,-17.6167,18.6,,,,,,,,,
Namibia,Tsumeb,-19.24,17.71,,,,,,,,,
Namibia,Omuthiya,-18.3611,16.5814,,,,,,,,,
New Caledonia,Koné,-21.0667,164.8667,,,,,,,,,
New Caledonia,Wé,-20.9,167.2667,,,,,,,,,
New Caledonia,Nouméa,-22.2625,166.4443,,,,,,,,,
Niger,Niamey,13.5167,2.1167,,,,,,,,,
Niger,Maradi,13.4916,7.0964,,,,,,,,,
Niger,Zinder,13.8,8.9833,,,,,,,,,
Niger,Ayorou,14.7318,0.9195,,,,,,,,,
Niger,Gaya,11.8882,3.4467,,,,,,,,,
Niger,Arlit,18.82,7.33,,,,,,,,,
Niger,Birni Nkonni,13.7904,5.2599,,,,,,,,,
Niger,Madaoua,14.0762,5.9586,,,,,,,,,
Niger,Tahoua,14.9,5.2599,,,,,,,,,
Niger,Nguigmi,14.2532,13.1108,,,,,,,,,
Niger,Dosso,13.05,3.2,,,,,,,,,
Niger,Gouré,13.9874,10.27,,,,,,,,,
Niger,Diffa,13.3171,12.6089,,,,,,,,,
Niger,Tillabéri,14.212,1.4531,,,,,,,,,
Niger,Djado,21.015,12.3075,,,,,,,,,
Niger,Agadez,16.9959,7.9828,,,,,,,,,
Norfolk Island,Kingston,-29.0569,167.9617,,,,,,,,,
Nigeria,Abuja,9.0833,7.5333,,,,,,,,,
Nigeria,Uyo,5.008,7.85,,,,,,,,,
Nigeria,Akure,7.2504,5.2,,,,,,,,,
Nigeria,Koko,11.4232,4.517,,,,,,,,,
Nigeria,Port Harcourt,4.81,7.01,,,,,,,,,
Nigeria,Gombe,10.2904,11.17,,,,,,,,,
Nigeria,Nsukka,6.867,7.3834,,,,,,,,,
Nigeria,Potiskum,11.7104,11.08,,,,,,,,,
Nigeria,Damaturu,11.749,11.966,,,,,,,,,
Nigeria,Wukari,7.8704,9.78,,,,,,,,,
Nigeria,Maiduguri,11.85,13.16,,,,,,,,,
Nigeria,Kontagora,10.4004,5.4699,,,,,,,,,
Nigeria,Jos,9.93,8.89,,,,,,,,,
Nigeria,Abakaliki,6.3249,8.1137,,,,,,,,,
Nigeria,Ife,7.4804,4.56,,,,,,,,,
Nigeria,Abeokuta,7.1604,3.35,,,,,,,,,
Nigeria,Ikeja,6.5965,3.3421,,,,,,,,,
Nigeria,Lagos,6.4433,3.3915,,,,,,,,,
Nigeria,Ijebu Ode,6.8204,3.92,,,,,,,,,
Nigeria,Iwo,7.63,4.18,,,,,,,,,
Nigeria,Oshogbo,7.7704,4.56,,,,,,,,,
Nigeria,Ilorin,8.49,4.55,,,,,,,,,
Nigeria,Gusau,12.1704,6.66,,,,,,,,,
Nigeria,Yenagoa,4.9267,6.2676,,,,,,,,,
Nigeria,Minna,9.62,6.55,,,,,,,,,
Nigeria,Ado Ekiti,7.6304,5.22,,,,,,,,,
Nigeria,Ibadan,7.38,3.93,,,,,,,,,
Nigeria,Iseyin,7.97,3.59,,,,,,,,,
Nigeria,Funtua,11.5204,7.32,,,,,,,,,
Nigeria,Katsina,12.9904,7.6,,,,,,,,,
Nigeria,Oyo,7.8504,3.93,,,,,,,,,
Nigeria,Ogbomosho,8.13,4.24,,,,,,,,,
Nigeria,Benin City,6.3405,5.62,,,,,,,,,
Nigeria,Keffi,8.849,7.8736,,,,,,,,,
Nigeria,Lafia,8.4904,8.52,,,,,,,,,
Nigeria,Ondo,7.0904,4.84,,,,,,,,,
Nigeria,Lokoja,7.8004,6.7399,,,,,,,,,
Nigeria,Sokoto,13.06,5.24,,,,,,,,,
Nigeria,Kaduna,10.52,7.44,,,,,,,,,
Nigeria,Kano,12,8.52,,,,,,,,,
Nigeria,Zaria,11.08,7.71,,,,,,,,,
Nigeria,Ikare,7.5304,5.76,,,,,,,,,
Nigeria,Owo,7.2004,5.59,,,,,,,,,
Nigeria,Dutse,11.7992,9.3503,,,,,,,,,
Nigeria,Idah,7.1104,6.7399,,,,,,,,,
Nigeria,Mubi,10.2703,13.27,,,,,,,,,
Nigeria,Orlu,5.7837,7.0333,,,,,,,,,
Nigeria,Bama,11.5204,13.69,,,,,,,,,
Nigeria,Bauchi,10.3104,9.84,,,,,,,,,
Nigeria,Makurdi,7.73,8.53,,,,,,,,,
Nigeria,Oturkpo,7.1904,8.13,,,,,,,,,
Nigeria,Onitsha,6.1404,6.78,,,,,,,,,
Nigeria,Awka,6.2104,7.07,,,,,,,,,
Nigeria,Enugu,6.45,7.5,,,,,,,,,
Nigeria,Biu,10.6204,12.19,,,,,,,,,
Nigeria,Owerri,5.493,7.026,,,,,,,,,
Nigeria,Calabar,4.9604,8.33,,,,,,,,,
Nigeria,Sapele,5.8904,5.68,,,,,,,,,
Nigeria,Opobo,4.5704,7.56,,,,,,,,,
Nigeria,Aba,5.1004,7.35,,,,,,,,,
Nigeria,Umuahia,5.532,7.486,,,,,,,,,
Nigeria,Warri,5.52,5.76,,,,,,,,,
Nigeria,Asaba,6.1985,6.7274,,,,,,,,,
Nigeria,Bida,9.0804,6.01,,,,,,,,,
Nigeria,Kumo,10.0457,11.2131,,,,,,,,,
Nigeria,Azare,11.6804,10.19,,,,,,,,,
Nigeria,Gashua,12.8705,11.04,,,,,,,,,
Nigeria,Yola,9.21,12.48,,,,,,,,,
Nigeria,Nguru,12.8804,10.45,,,,,,,,,
Nigeria,Jalingo,8.9004,11.36,,,,,,,,,
Nigeria,Numan,9.4604,12.04,,,,,,,,,
Nigeria,Birnin Kebbi,12.4504,4.1999,,,,,,,,,
Nicaragua,Managua,12.153,-86.2685,,,,,,,,,
Nicaragua,San Carlos,11.2,-84.8333,,,,,,,,,
Nicaragua,Juigalpa,12.11,-85.38,,,,,,,,,
Nicaragua,Boaco,12.47,-85.66,,,,,,,,,
Nicaragua,Granada‎,11.9337,-85.95,,,,,,,,,
Nicaragua,Puerto Cabezas,14.0333,-83.3834,,,,,,,,,
Nicaragua,Jinotepe,11.846,-86.195,,,,,,,,,
Nicaragua,Jinotega,13.091,-86,,,,,,,,,
Nicaragua,León,12.4356,-86.8794,,,,,,,,,
Nicaragua,Estelí,13.09,-86.36,,,,,,,,,
Nicaragua,Somoto,13.476,-86.583,,,,,,,,,
Nicaragua,Chinandega,12.6304,-87.13,,,,,,,,,
Nicaragua,Ocotal,13.63,-86.473,,,,,,,,,
Nicaragua,Masaya,11.969,-86.095,,,,,,,,,
Nicaragua,Bluefields,12,-83.7649,,,,,,,,,
Nicaragua,Rivas,11.4404,-85.82,,,,,,,,,
Nicaragua,Matagalpa,12.9171,-85.9167,,,,,,,,,
Nicaragua,San Juan de Nicaragua,10.9204,-83.7,,,,,,,,,
Nicaragua,San Juan del Sur,11.25,-85.86,,,,,,,,,
Netherlands,Maastricht,50.853,5.677,,,,,,,,,
Netherlands,Amsterdam,52.35,4.9166,,,,,,,,,
Netherlands,The Hague,52.08,4.27,,,,,,,,,
Netherlands,Haarlem,52.3804,4.63,,,,,,,,,
Netherlands,Groningen,53.2204,6.58,,,,,,,,,
Netherlands,Middelburg,51.502,3.61,,,,,,,,,
Netherlands,Lelystad,52.5176,5.474,,,,,,,,,
Netherlands,Arnhem,51.988,5.923,,,,,,,,,
Netherlands,Assen,53,6.55,,,,,,,,,
Netherlands,'s-Hertogenbosch,51.6833,5.3167,,,,,,,,,
Netherlands,Zwolle,52.524,6.097,,,,,,,,,
Netherlands,Utrecht,52.1003,5.12,,,,,,,,,
Netherlands,Leeuwarden,53.2504,5.7834,,,,,,,,,
Netherlands,Rotterdam,51.92,4.48,,,,,,,,,
Netherlands,Eindhoven,51.43,5.5,,,,,,,,,
Norway,Tromsø,69.6351,18.992,,,,,,,,,
Norway,Molde,62.7483,7.1833,,,,,,,,,
Norway,Vossavangen,60.63,6.441,,,,,,,,,
Norway,Oslo,59.9167,10.75,,,,,,,,,
Norway,Lillehammer,61.1333,10.5,,,,,,,,,
Norway,Bærum,59.9135,11.3472,,,,,,,,,
Norway,Stavanger,58.97,5.68,,,,,,,,,
Norway,Hermansverk,61.1833,6.85,,,,,,,,,
Norway,Leikanger,61.1833,6.85,,,,,,,,,
Norway,Kristiansand,58.1666,8,,,,,,,,,
Norway,Bergen,60.391,5.3245,,,,,,,,,
Norway,Skien,59.2,9.6,,,,,,,,,
Norway,Arendal,58.4648,8.766,,,,,,,,,
Norway,Hamar,60.82,11.069,,,,,,,,,
Norway,Tønsberg,59.264,10.421,,,,,,,,,
Norway,Drammen,59.7572,10.1907,,,,,,,,,
Norway,Bodø,67.2468,14.399,,,,,,,,,
Norway,Haugesund,59.4119,5.2775,,,,,,,,,
Norway,Svolvær,68.2333,14.5667,,,,,,,,,
Norway,Ålesund,62.5454,6.388,,,,,,,,,
Norway,Harstad,68.7879,16.5156,,,,,,,,,
Norway,Finnsnes,69.2406,18.0086,,,,,,,,,
Norway,Alta,69.9666,23.2417,,,,,,,,,
Norway,Kirkenes,69.725,30.0516,,,,,,,,,
Norway,Sandnes,58.8454,5.69,,,,,,,,,
Norway,Gjøvik,60.8,10.7,,,,,,,,,
Norway,Mo i Rana,66.3166,14.1667,,,,,,,,,
Norway,Sarpsborg,59.2833,11.1167,,,,,,,,,
Norway,Moss,59.437,10.6692,,,,,,,,,
Norway,Vadsø,70.0966,29.7657,,,,,,,,,
Norway,Rørvik,64.868,11.2053,,,,,,,,,
Norway,Namsos,64.4833,11.5,,,,,,,,,
Norway,Trondheim,63.4167,10.4167,,,,,,,,,
Norway,Steinkjer,64.0171,11.5,,,,,,,,,
Norway,Narvik,68.3832,17.29,,,,,,,,,
Norway,Hammerfest,70.6613,23.688,,,,,,,,,
Nepal,Jumla,29.25,82.2167,,,,,,,,,
Nepal,Salyan,28.35,82.1833,,,,,,,,,
Nepal,Kathmandu,27.7167,85.3166,,,,,,,,,
Nepal,Bhairawa,27.5333,83.3833,,,,,,,,,
Nepal,Pokhara,28.264,83.972,,,,,,,,,
Nepal,Hetauda,27.4167,85.0334,,,,,,,,,
Nepal,Dandeldhura,29.3,80.6,,,,,,,,,
Nepal,Baglung,28.2667,83.5833,,,,,,,,,
Nepal,Ramechhap,27.326,86.087,,,,,,,,,
Nepal,Lalitpur,27.6666,85.3333,,,,,,,,,
Nepal,Biratnagar,26.4837,87.2833,,,,,,,,,
Nepal,Rajbiraj,26.5333,86.7333,,,,,,,,,
Nepal,Bhimphedi,27.551,85.13,,,,,,,,,
Nepal,Ilam,26.908,87.926,,,,,,,,,
Nepal,Dhangarhi,28.695,80.593,,,,,,,,,
Nepal,Birganj,27.0004,84.8666,,,,,,,,,
Nepal,Nepalganj,28.0503,81.6167,,,,,,,,,
Niue,Alofi,-19.0167,-169.9167,,,,,,,,,
New Zealand,Masterton,-40.9439,175.6456,,,,,,,,,
New Zealand,Gore,-46.0947,168.9604,,,,,,,,,
New Zealand,Te Anau,-45.4074,167.7585,,,,,,,,,
New Zealand,Invercargill,-46.4094,168.365,,,,,,,,,
New Zealand,Ashburton,-43.8983,171.7486,,,,,,,,,
New Zealand,Timaru,-44.3972,171.2425,,,,,,,,,
New Zealand,Kaikoura,-42.4012,173.6897,,,,,,,,,
New Zealand,Christchurch,-43.535,172.63,,,,,,,,,
New Zealand,Queenstown,-45.0227,168.7251,,,,,,,,,
New Zealand,Porirua,-41.1219,174.8524,,,,,,,,,
New Zealand,Wanaka,-44.698,169.1449,,,,,,,,,
New Zealand,Nelson,-41.2926,173.2474,,,,,,,,,
New Zealand,Picton,-41.2805,174.0166,,,,,,,,,
New Zealand,Hamilton,-37.7783,175.2896,,,,,,,,,
New Zealand,Dunedin,-45.8854,170.491,,,,,,,,,
New Zealand,Thames,-37.1384,175.5853,,,,,,,,,
New Zealand,Lower Hutt,-41.2037,174.9123,,,,,,,,,
New Zealand,Palmerston North,-40.3527,175.6072,,,,,,,,,
New Zealand,Wanganui,-39.9326,175.0393,,,,,,,,,
New Zealand,Westport,-41.7638,171.6028,,,,,,,,,
New Zealand,Hokitika,-42.7072,171.01,,,,,,,,,
New Zealand,Greymouth,-42.4716,171.2231,,,,,,,,,
New Zealand,Paraparaumu,-40.9034,174.9989,,,,,,,,,
New Zealand,Wellington,-41.3,174.7833,,,,,,,,,
New Zealand,Upper Hutt,-41.1355,175.029,,,,,,,,,
New Zealand,Levin,-40.6124,175.2772,,,,,,,,,
New Zealand,Rotorua,-38.1317,176.2483,,,,,,,,,
New Zealand,Tauranga,-37.6964,176.1536,,,,,,,,,
New Zealand,Waitangi,-44.0263,-176.3696,,,,,,,,,
New Zealand,Taupo,-38.693,176.0771,,,,,,,,,
New Zealand,Whakatane,-37.9574,176.9828,,,,,,,,,
New Zealand,Kerikeri,-35.2285,173.9507,,,,,,,,,
New Zealand,Whangarei,-35.7256,174.323,,,,,,,,,
New Zealand,Pukekohe,-37.2015,174.9033,,,,,,,,,
New Zealand,Auckland,-36.8481,174.763,,,,,,,,,
New Zealand,Waitakere,-36.8524,174.5543,,,,,,,,,
New Zealand,Cambridge,-37.8894,175.4703,,,,,,,,,
New Zealand,Kaitaia,-35.1099,173.2727,,,,,,,,,
New Zealand,Gisborne,-38.6633,178.0181,,,,,,,,,
New Zealand,Turangi,-38.9889,175.8142,,,,,,,,,
New Zealand,Tokoroa,-38.2245,175.8705,,,,,,,,,
New Zealand,Manukau,-37,174.885,,,,,,,,,
New Zealand,Napier,-39.49,176.9265,,,,,,,,,
New Zealand,North Shore,-36.7913,174.7758,,,,,,,,,
New Zealand,Oban,-46.8876,168.1666,,,,,,,,,
New Zealand,New Plymouth,-39.0556,174.0748,,,,,,,,,
New Zealand,Hawera,-39.5795,174.278,,,,,,,,,
New Zealand,Kaiapoi,-43.3813,172.651,,,,,,,,,
Oman,Mirbat,16.9924,54.6918,,,,,,,,,
Oman,Nizwa,22.9264,57.5314,,,,,,,,,
Oman,Ar Rustāq,23.3908,57.4244,,,,,,,,,
Oman,Haymā’,19.9333,56.3167,,,,,,,,,
Oman,Şūr,22.5667,59.5289,,,,,,,,,
Oman,Khaşab,26.1799,56.2477,,,,,,,,,
Oman,Salalah,17.0255,54.0852,,,,,,,,,
Oman,Muscat,23.6133,58.5933,,,,,,,,,
Oman,Şuḩār,24.3643,56.7468,,,,,,,,,
Oman,Ibrā’,22.6906,58.5334,,,,,,,,,
Oman,Alayat Samail,23.3032,57.9782,,,,,,,,,
Oman,Ibri,23.2254,56.517,,,,,,,,,
Oman,Al Buraymī,24.2611,55.7903,,,,,,,,,
Oman,As Sib,23.6802,58.1825,,,,,,,,,
Oman,Dawwah,20.633,58.908,,,,,,,,,
Oman,Suhar,24.362,56.7344,,,,,,,,,
Panama,Balboa,8.95,-79.5667,,,,,,,,,
Panama,Panama City,8.968,-79.533,,,,,,,,,
Panama,La Chorrera,8.8803,-79.7833,,,,,,,,,
Panama,Colón,9.365,-79.875,,,,,,,,,
Panama,Jaqué,7.519,-78.166,,,,,,,,,
Panama,La Palma,8.3982,-78.1402,,,,,,,,,
Panama,Penonome,8.51,-80.36,,,,,,,,,
Panama,Unión Chocó,8.0989,-77.6085,,,,,,,,,
Panama,David,8.4333,-82.4333,,,,,,,,,
Panama,Puerto Armuelles,8.28,-82.87,,,,,,,,,
Panama,Santiago,8.1004,-80.9833,,,,,,,,,
Panama,Las Tablas,7.7604,-80.28,,,,,,,,,
Panama,Chitré,7.97,-80.42,,,,,,,,,
Panama,Buabidi,8.4746,-81.6983,,,,,,,,,
Panama,Bocas del Toro,9.3354,-82.2475,,,,,,,,,
Panama,Almirante,9.3,-82.4,,,,,,,,,
Panama,El Porvenir,9.5417,-78.972,,,,,,,,,
Peru,Trujillo,-8.12,-79.02,,,,,,,,,
Peru,Lima,-12.048,-77.0501,,,,,,,,,
Peru,Abancay,-13.6396,-72.89,,,,,,,,,
Peru,Nuevo Rocafuerte,-0.9329,-75.4,,,,,,,,,
Peru,Arequipa,-16.42,-71.53,,,,,,,,,
Peru,Huaura,-11.06,-77.6,,,,,,,,,
Peru,Tournavista,-8.9322,-74.7052,,,,,,,,,
Peru,Jaén,-5.7096,-78.81,,,,,,,,,
Peru,Huamachuco,-7.81,-78.0499,,,,,,,,,
Peru,Chiclayo,-6.7629,-79.8366,,,,,,,,,
Peru,Motupe,-6.15,-79.71,,,,,,,,,
Peru,Lamas,-6.43,-76.52,,,,,,,,,
Peru,Juanjuí,-7.1696,-76.74,,,,,,,,,
Peru,Olmos,-5.9796,-79.75,,,,,,,,,
Peru,Moyobamba,-6.0496,-76.9667,,,,,,,,,
Peru,Tarapoto,-6.51,-76.48,,,,,,,,,
Peru,Chulucanas,-5.0896,-80.17,,,,,,,,,
Peru,Huaraz,-9.53,-77.53,,,,,,,,,
Peru,Chota,-6.5496,-78.65,,,,,,,,,
Peru,Callao,-12.07,-77.135,,,,,,,,,
Peru,Tarma,-11.41,-75.73,,,,,,,,,
Peru,Ilave,-16.0796,-69.67,,,,,,,,,
Peru,Puno,-15.8329,-70.0333,,,,,,,,,
Peru,Urubamba,-13.3042,-72.1166,,,,,,,,,
Peru,La Oroya,-11.52,-75.94,,,,,,,,,
Peru,San Ramon,-11.1296,-75.34,,,,,,,,,
Peru,Cerro de Pasco,-10.69,-76.27,,,,,,,,,
Peru,Jauja,-11.7996,-75.5,,,,,,,,,
Peru,Cajamarca,-7.15,-78.53,,,,,,,,,
Peru,Satipo,-11.26,-74.69,,,,,,,,,
Peru,Ilo,-17.64,-71.34,,,,,,,,,
Peru,Gueppi,-0.1166,-75.23,,,,,,,,,
Peru,Otuzco,-7.9,-78.57,,,,,,,,,
Peru,Moquegua,-17.19,-70.94,,,,,,,,,
Peru,Andoas,-2.9021,-76.4025,,,,,,,,,
Peru,Salaverry,-8.22,-78.99,,,,,,,,,
Peru,Pativilca,-10.6996,-77.8,,,,,,,,,
Peru,Soldado Bartra,-2.5161,-75.7666,,,,,,,,,
Peru,Puca Urco,-2.3328,-71.9167,,,,,,,,,
Peru,Tumbes,-3.57,-80.46,,,,,,,,,
Peru,Ica,-14.068,-75.7255,,,,,,,,,
Peru,Sullana,-4.8896,-80.68,,,,,,,,,
Peru,Cusco,-13.525,-71.9722,,,,,,,,,
Peru,Santo Tomas,-14.46,-72.08,,,,,,,,,
Peru,Puquio,-14.7,-74.13,,,,,,,,,
Peru,Juliaca,-15.5,-70.14,,,,,,,,,
Peru,Huancayo,-12.08,-75.2,,,,,,,,,
Peru,Piura,-5.21,-80.63,,,,,,,,,
Peru,Paita,-5.09,-81.12,,,,,,,,,
Peru,Tingo María,-9.2896,-75.99,,,,,,,,,
Peru,Huánuco,-9.92,-76.24,,,,,,,,,
Peru,Sicuani,-14.2896,-71.23,,,,,,,,,
Peru,Desaguadero,-16.5646,-69.045,,,,,,,,,
Peru,Cajabamba,-7.6196,-78.04,,,,,,,,,
Peru,Putina,-15.47,-69.43,,,,,,,,,
Peru,Pacasmayo,-7.4006,-79.5706,,,,,,,,,
Peru,Caballococha,-3.9163,-70.5083,,,,,,,,,
Peru,Tocache,-8.1796,-76.52,,,,,,,,,
Peru,Pucallpa,-8.3689,-74.535,,,,,,,,,
Peru,Junín,-11.1496,-76.01,,,,,,,,,
Peru,Camaná,-16.6196,-72.72,,,,,,,,,
Peru,Chincha Alta,-13.4196,-76.14,,,,,,,,,
Peru,Nauta,-4.57,-73.78,,,,,,,,,
Peru,Iquitos,-3.75,-73.25,,,,,,,,,
Peru,Puerto Maldonado,-12.6,-69.1833,,,,,,,,,
Peru,Requena,-5.0696,-73.91,,,,,,,,,
Peru,Casma,-9.44,-78.21,,,,,,,,,
Peru,Ayaviri,-14.8796,-70.6,,,,,,,,,
Peru,Chosica,-11.93,-76.71,,,,,,,,,
Peru,Ayacucho,-13.175,-74.22,,,,,,,,,
Peru,Huancavelica,-12.79,-74.99,,,,,,,,,
Peru,Huanta,-12.9496,-74.25,,,,,,,,,
Peru,Chilca,-12.5196,-76.74,,,,,,,,,
Peru,Chancay,-11.5596,-77.27,,,,,,,,,
Peru,Chimbote,-9.07,-78.57,,,,,,,,,
Peru,Nasca,-14.83,-74.94,,,,,,,,,
Peru,Mollendo,-17.02,-72.02,,,,,,,,,
Peru,Huarmey,-10.0696,-78.16,,,,,,,,,
Peru,Santiago,-14.1896,-75.74,,,,,,,,,
Peru,Coracora,-15.0196,-73.79,,,,,,,,,
Peru,Pimentel,-6.8296,-79.93,,,,,,,,,
Peru,Ferreñafe,-6.63,-79.8,,,,,,,,,
Peru,Talara,-4.58,-81.28,,,,,,,,,
Peru,Sechura,-5.5596,-80.82,,,,,,,,,
Peru,Pisco,-13.71,-76.22,,,,,,,,,
Peru,Contamana,-7.34,-75.02,,,,,,,,,
Peru,Chachapoyas,-6.2296,-77.87,,,,,,,,,
Peru,Huacho,-11.11,-77.6199,,,,,,,,,
Peru,Tacna,-18,-70.25,,,,,,,,,
French Polynesia,Papeete,-17.5334,-149.5667,,,,,,,,,
Papua New Guinea,Port Moresby,-9.4647,147.1925,,,,,,,,,
Papua New Guinea,Kieta,-6.2163,155.6333,,,,,,,,,
Papua New Guinea,Sohano,-5.4297,154.6711,,,,,,,,,
Papua New Guinea,Wewak,-3.5535,143.6367,,,,,,,,,
Papua New Guinea,Kavieng,-2.5813,150.813,,,,,,,,,
Papua New Guinea,Lorengau,-2.032,147.28,,,,,,,,,
Papua New Guinea,Hoskins,-5.4746,150.41,,,,,,,,,
Papua New Guinea,Abau,-10.0426,148.565,,,,,,,,,
Papua New Guinea,Kimbe,-5.55,150.143,,,,,,,,,
Papua New Guinea,Alotau,-10.3021,150.4591,,,,,,,,,
Papua New Guinea,Daru,-9.1092,143.2337,,,,,,,,,
Papua New Guinea,Mt. Hagen,-5.8632,144.2168,,,,,,,,,
Papua New Guinea,Lae,-6.733,146.99,,,,,,,,,
Papua New Guinea,Goroka,-6.0833,145.3855,,,,,,,,,
Papua New Guinea,Madang,-5.2248,145.7853,,,,,,,,,
Papua New Guinea,Arawa,-6.228,155.566,,,,,,,,,
Papua New Guinea,Kerema,-7.927,145.838,,,,,,,,,
Papua New Guinea,Vanimo,-2.69,141.304,,,,,,,,,
Papua New Guinea,Rabaul,-4.2055,152.1434,,,,,,,,,
Papua New Guinea,Popondetta,-8.7692,148.2484,,,,,,,,,
Papua New Guinea,Wabag,-5.49,143.718,,,,,,,,,
Papua New Guinea,Mendi,-6.1444,143.6452,,,,,,,,,
Papua New Guinea,Kundiawa,-6.023,144.96,,,,,,,,,
Philippines,Alabel,6.1018,125.2905,,,,,,,,,
Philippines,Laoag,18.1988,120.5936,,,,,,,,,
Philippines,Marawi City,8.0034,124.2839,,,,,,,,,
Philippines,Cadiz,10.9587,123.3086,,,,,,,,,
Philippines,Malaybalay,8.1575,125.1278,,,,,,,,,
Philippines,Calbayog,12.0672,124.6042,,,,,,,,,
Philippines,Gingoog,8.8304,125.13,,,,,,,,,
Philippines,Roxas,11.5853,122.7511,,,,,,,,,
Philippines,San Pablo,14.0696,121.3226,,,,,,,,,
Philippines,San Carlos,10.5504,123.38,,,,,,,,,
Philippines,City of Isabela,6.7041,121.9712,,,,,,,,,
Philippines,Cabanatuan,15.5021,120.9617,,,,,,,,,
Philippines,Baguio City,16.43,120.5699,,,,,,,,,
Philippines,Manila,14.6042,120.9822,,,,,,,,,
Philippines,Makati City,14.5501,121.036,,,,,,,,,
Philippines,Pasig City,14.5604,121.0812,,,,,,,,,
Philippines,City of Parañaque,14.4978,120.9907,,,,,,,,,
Philippines,Baler,15.7589,121.5607,,,,,,,,,
Philippines,Bangued,17.5982,120.6155,,,,,,,,,
Philippines,Balanga,14.6761,120.5361,,,,,,,,,
Philippines,Boac,13.4463,121.84,,,,,,,,,
Philippines,Malita,6.415,125.6117,,,,,,,,,
Philippines,Malolos,14.8443,120.8104,,,,,,,,,
Philippines,Mati,6.9551,126.2166,,,,,,,,,
Philippines,Batangas,13.7817,121.0217,,,,,,,,,
Philippines,Bayombong,16.4812,121.1497,,,,,,,,,
Philippines,Angeles,15.1451,120.5451,,,,,,,,,
Philippines,Bacolod,10.6317,122.9817,,,,,,,,,
Philippines,Mandaue City,10.3237,123.9436,,,,,,,,,
Philippines,Bongao,5.0292,119.7731,,,,,,,,,
Philippines,Bontoc,17.0899,120.978,,,,,,,,,
Philippines,Borongan,11.6081,125.4319,,,,,,,,,
Philippines,Butuan,8.9495,125.5436,,,,,,,,,
Philippines,Cabadbaran,9.1236,125.5344,,,,,,,,,
Philippines,Cabarroguis,16.5111,121.5212,,,,,,,,,
Philippines,Cagayan de Oro,8.4508,124.6853,,,,,,,,,
Philippines,Calapan,13.4108,121.1797,,,,,,,,,
Philippines,Caloocan City,14.6492,120.9826,,,,,,,,,
Philippines,Catarman,12.4989,124.6377,,,,,,,,,
Philippines,Catbalogan,11.7753,124.8861,,,,,,,,,
Philippines,Cebu,10.32,123.9001,,,,,,,,,
Philippines,Cotabato,7.2169,124.2484,,,,,,,,,
Philippines,Daet,14.1122,122.9553,,,,,,,,,
Philippines,Dagupan,16.0479,120.3408,,,,,,,,,
Philippines,Davao,7.11,125.63,,,,,,,,,
Philippines,Digos,6.7497,125.3572,,,,,,,,,
Philippines,Dipolog,8.5883,123.3409,,,,,,,,,
Philippines,Dumaguete City,9.307,123.3074,,,,,,,,,
Philippines,General Santos,6.1108,125.1747,,,,,,,,,
Philippines,Iba,15.3276,119.978,,,,,,,,,
Philippines,Ilagan,17.1485,121.8892,,,,,,,,,
Philippines,Iligan,8.1712,124.2154,,,,,,,,,
Philippines,Iloilo,10.705,122.545,,,,,,,,,
Philippines,Ipil,7.7844,122.5861,,,,,,,,,
Philippines,Jolo,6.0522,121.0022,,,,,,,,,
Philippines,Jordan,10.6584,122.5963,,,,,,,,,
Philippines,Kabugao,18.0231,121.184,,,,,,,,,
Philippines,Kalibo,11.7086,122.3648,,,,,,,,,
Philippines,Kidapawan,7.0083,125.0894,,,,,,,,,
Philippines,Lagawe,16.8,121.1192,,,,,,,,,
Philippines,La Trinidad,16.4556,120.5903,,,,,,,,,
Philippines,Lapu-Lapu City,10.3103,123.9494,,,,,,,,,
Philippines,Legazpi,13.17,123.75,,,,,,,,,
Philippines,Lingayen,16.0218,120.2319,,,,,,,,,
Philippines,Lucena,13.9348,121.6127,,,,,,,,,
Philippines,Maasin,10.1336,124.8447,,,,,,,,,
Philippines,Malabon,14.6691,120.972,,,,,,,,,
Philippines,Mambajao,9.2504,124.7156,,,,,,,,,
Philippines,Mamburao,13.2233,120.596,,,,,,,,,
Philippines,Mandaluyong City,14.5832,121.0409,,,,,,,,,
Philippines,Marikina City,14.6414,121.1118,,,,,,,,,
Philippines,Masbate,12.3687,123.6225,,,,,,,,,
Philippines,Muntinlupa City,14.4135,121.0263,,,,,,,,,
Philippines,Nabunturan,7.6029,125.9629,,,,,,,,,
Philippines,Naga,13.6192,123.1814,,,,,,,,,
Philippines,Naval,11.5612,124.3952,,,,,,,,,
Philippines,Navotas,14.6477,120.9591,,,,,,,,,
Philippines,Olongapo,14.8296,120.2828,,,,,,,,,
Philippines,Ormac,11.0643,124.6075,,,,,,,,,
Philippines,Oroquieta,8.4859,123.8048,,,,,,,,,
Philippines,Pagadian,7.853,123.507,,,,,,,,,
Philippines,Palayan City,15.5415,121.0848,,,,,,,,,
Philippines,Pasay City,14.5504,121,,,,,,,,,
Philippines,Pili,13.7177,123.7448,,,,,,,,,
Philippines,Prosperidad,8.58,125.8964,,,,,,,,,
Philippines,Puerto Princesa,9.7543,118.7444,,,,,,,,,
Philippines,Quezon City,14.6504,121.03,,,,,,,,,
Philippines,Romblon,12.5751,122.2708,,,,,,,,,
Philippines,San Fernando,16.6186,120.3194,,,,,,,,,
Philippines,San Fernando,15.0343,120.6844,,,,,,,,,
Philippines,San Jose,10.18,125.5683,,,,,,,,,
Philippines,San Juan,14.6,121.0333,,,,,,,,,
Philippines,Santa Cruz,14.1167,121.2833,,,,,,,,,
Philippines,Santiago,16.6881,121.5472,,,,,,,,,
Philippines,Shariff Aguak,6.8647,124.4417,,,,,,,,,
Philippines,Siquijor,9.2142,123.515,,,,,,,,,
Philippines,Sorsogon,12.9708,124.0053,,,,,,,,,
Philippines,Surigao,9.7843,125.4888,,,,,,,,,
Philippines,Tabuk,17.4084,121.2785,,,,,,,,,
Philippines,Tacloban,11.2504,125,,,,,,,,,
Philippines,Taguig City,14.5289,121.0723,,,,,,,,,
Philippines,Tagum,7.4475,125.8094,,,,,,,,,
Philippines,Tandag,9.0783,126.1986,,,,,,,,,
Philippines,Tarlac,15.4838,120.5834,,,,,,,,,
Philippines,Trece Martires City,14.2832,120.8677,,,,,,,,,
Philippines,Tubod,8.0555,123.7904,,,,,,,,,
Philippines,Tuguegarao,17.6131,121.7269,,,,,,,,,
Philippines,Valenzuela,14.6936,120.9656,,,,,,,,,
Philippines,Vigan,17.5747,120.3869,,,,,,,,,
Philippines,Virac,13.5848,124.2374,,,,,,,,,
Philippines,Zamboanga,6.92,122.08,,,,,,,,,
Philippines,San Jose,10.745,121.9415,,,,,,,,,
Philippines,Basco,20.4486,121.9702,,,,,,,,,
Philippines,Antipolo,14.5886,121.1757,,,,,,,,,
Philippines,Koronadal,6.2541,124.9922,,,,,,,,,
Philippines,Isulan,6.6294,124.6051,,,,,,,,,
Philippines,Ozamis,8.1462,123.8444,,,,,,,,,
Philippines,Tagum,7.3821,125.8017,,,,,,,,,
Pakistan,Karachi,24.87,66.99,,,,,,,,,
Pakistan,Gilgit,35.9171,74.3,,,,,,,,,
Pakistan,Chaman,30.925,66.4463,,,,,,,,,
Pakistan,Turbat,25.9918,63.0718,,,,,,,,,
Pakistan,Islamabad,33.7,73.1666,,,,,,,,,
Pakistan,Zhob,31.349,69.4386,,,,,,,,,
Pakistan,Quetta,30.22,67.025,,,,,,,,,
Pakistan,Hyderabad,25.38,68.375,,,,,,,,,
Pakistan,Mardan,34.2,72.04,,,,,,,,,
Pakistan,Saidu,34.75,72.35,,,,,,,,,
Pakistan,Jhang,31.2804,72.325,,,,,,,,,
Pakistan,Kasur,31.1254,74.455,,,,,,,,,
Pakistan,Lahore,31.56,74.35,,,,,,,,,
Pakistan,Nawabshah,26.2454,68.4,,,,,,,,,
Pakistan,Chiniot,31.72,72.98,,,,,,,,,
Pakistan,Bannu,32.989,70.5986,,,,,,,,,
Pakistan,Sadiqabad,28.3006,70.1302,,,,,,,,,
Pakistan,Sukkur,27.7136,68.8486,,,,,,,,,
Pakistan,Peshawar,34.005,71.535,,,,,,,,,
Pakistan,Bahawalpur,29.39,71.675,,,,,,,,,
Pakistan,Sargodha,32.0854,72.675,,,,,,,,,
Pakistan,Dera Ismail Khan,31.829,70.8986,,,,,,,,,
Pakistan,Kundian,32.4522,71.4718,,,,,,,,,
Pakistan,Gwadar,25.139,62.3286,,,,,,,,,
Pakistan,Parachinar,33.8992,70.1008,,,,,,,,,
Pakistan,Larkana,27.5618,68.2068,,,,,,,,,
Pakistan,Kohat,33.6027,71.4327,,,,,,,,,
Pakistan,Rahim Yar Khan,28.4202,70.2952,,,,,,,,,
Pakistan,Mirput Khas,25.5318,69.0118,,,,,,,,,
Pakistan,Dera Ghazi Khan,30.0604,70.6351,,,,,,,,,
Pakistan,Gujranwala,32.1604,74.185,,,,,,,,,
Pakistan,Rawalpindi,33.6,73.04,,,,,,,,,
Pakistan,Gujrat,32.58,74.08,,,,,,,,,
Pakistan,Sialkote,32.52,74.56,,,,,,,,,
Pakistan,Mansehra,34.3418,73.1968,,,,,,,,,
Pakistan,Abbottabad,34.1495,73.1995,,,,,,,,,
Pakistan,Multan,30.2,71.455,,,,,,,,,
Pakistan,Sheikhu Pura,31.72,73.99,,,,,,,,,
Pakistan,Sahiwal,30.6717,73.1118,,,,,,,,,
Pakistan,Okara,30.8104,73.45,,,,,,,,,
Pakistan,Faisalabad,31.41,73.11,,,,,,,,,
Poland,Łódź,51.775,19.4514,,,,,,,,,
Poland,Lublin,51.2504,22.5727,,,,,,,,,
Poland,Wrocław,51.1104,17.03,,,,,,,,,
Poland,Białystok,53.1504,23.17,,,,,,,,,
Poland,Poznań,52.4058,16.8999,,,,,,,,,
Poland,Zielona Góra,51.9504,15.5,,,,,,,,,
Poland,Bydgoszcz,53.1204,18.01,,,,,,,,,
Poland,Szczecin,53.4204,14.53,,,,,,,,,
Poland,Gdańsk,54.36,18.64,,,,,,,,,
Poland,Olsztyn,53.8,20.48,,,,,,,,,
Poland,Katowice,50.2604,19.02,,,,,,,,,
Poland,Rzeszów,50.0705,22,,,,,,,,,
Poland,Kraków,50.06,19.96,,,,,,,,,
Poland,Opole,50.685,17.9313,,,,,,,,,
Poland,Kielce,50.8904,20.66,,,,,,,,,
Poland,Gorzów Wielkopolski,52.7368,15.2288,,,,,,,,,
Poland,Gdynia,54.5204,18.53,,,,,,,,,
Poland,Grudziądz,53.4804,18.75,,,,,,,,,
Poland,Inowrocław,52.7799,18.25,,,,,,,,,
Poland,Gliwice,50.3304,18.67,,,,,,,,,
Poland,Bytom,50.35,18.91,,,,,,,,,
Poland,Warsaw,52.25,21,,,,,,,,,
Poland,Elbląg,54.19,19.4027,,,,,,,,,
Poland,Ełk,53.8337,22.35,,,,,,,,,
Poland,Koszalin,54.2,16.1833,,,,,,,,,
Saint Pierre And Miquelon,Saint-Pierre,46.7811,-56.1764,,,,,,,,,
Pitcairn Islands,Adamstown,-25.0667,-130.0833,,,,,,,,,
Portugal,Funchal,32.65,-16.88,,,,,,,,,
Portugal,Setúbal,38.53,-8.9,,,,,,,,,
Portugal,Lisbon,38.7227,-9.1449,,,,,,,,,
Portugal,Évora,38.56,-7.906,,,,,,,,,
Portugal,Angra do Heroísmo,38.6504,-27.2167,,,,,,,,,
Portugal,Santarém,39.231,-8.682,,,,,,,,,
Portugal,Horta,38.5347,-28.6448,,,,,,,,,
Portugal,Ponta Delgada,37.7483,-25.6666,,,,,,,,,
Portugal,Porto,41.15,-8.62,,,,,,,,,
Portugal,Faro,37.0171,-7.9333,,,,,,,,,
Portugal,Vila Real,41.294,-7.737,,,,,,,,,
Portugal,Aveiro,40.641,-8.651,,,,,,,,,
Portugal,Guarda,40.541,-7.262,,,,,,,,,
Portugal,Viseu,40.657,-7.91,,,,,,,,,
Portugal,Bragança,41.808,-6.755,,,,,,,,,
Portugal,Viana Do Castelo,41.6962,-8.8441,,,,,,,,,
Portugal,Braga,41.555,-8.4213,,,,,,,,,
Portugal,Beja,38.014,-7.863,,,,,,,,,
Portugal,Castelo Branco,39.811,-7.488,,,,,,,,,
Portugal,Portalegre,39.29,-7.423,,,,,,,,,
Portugal,Coimbra,40.2004,-8.4167,,,,,,,,,
Portugal,Leiria,39.739,-8.805,,,,,,,,,
Portugal,Covilhã,40.2833,-7.5,,,,,,,,,
Portugal,Portimão,37.1337,-8.5333,,,,,,,,,
Palau,Koror,7.3452,134.4695,,,,,,,,,
Palau,Melekeok,7.4874,134.6265,,,,,,,,,
Palau,Ngerulmud,7.5,134.6242,,,,,,,,,
Paraguay,La Victoria,-22.2896,-57.94,,,,,,,,,
Paraguay,General Eugenio Alejandrino Garay,-20.52,-62.21,,,,,,,,,
Paraguay,Bella Vista,-22.1296,-56.52,,,,,,,,,
Paraguay,Ñacunday,-26.02,-54.7699,,,,,,,,,
Paraguay,Mariscal Estigarribia,-22.03,-60.61,,,,,,,,,
Paraguay,Horqueta,-23.3396,-57.05,,,,,,,,,
Paraguay,Capitan Pablo Lagerenza,-19.9161,-60.7833,,,,,,,,,
Paraguay,Pozo Colorado,-23.43,-58.86,,,,,,,,,
Paraguay,Belén,-23.4695,-57.24,,,,,,,,,
Paraguay,Fuerte Olimpo,-21.0696,-57.9,,,,,,,,,
Paraguay,Abaí,-26.0296,-55.94,,,,,,,,,
Paraguay,Areguá,-25.3125,-57.3847,,,,,,,,,
Paraguay,Caazapá,-26.2,-56.38,,,,,,,,,
Paraguay,Concepción,-23.4064,-57.4344,,,,,,,,,
Paraguay,Caacupé,-25.387,-57.14,,,,,,,,,
Paraguay,Villarrica,-25.75,-56.4333,,,,,,,,,
Paraguay,Pedro Juan Caballero,-22.5446,-55.76,,,,,,,,,
Paraguay,Encarnación,-27.3472,-55.8739,,,,,,,,,
Paraguay,Coronel Oviedo,-25.45,-56.44,,,,,,,,,
Paraguay,Ciudad del Este,-25.5167,-54.6161,,,,,,,,,
Paraguay,San Juan Bautista,-26.68,-57.15,,,,,,,,,
Paraguay,Pilar,-26.8695,-58.3,,,,,,,,,
Paraguay,Paraguarí,-25.62,-57.16,,,,,,,,,
Paraguay,Villa Hayes,-25.09,-57.53,,,,,,,,,
Paraguay,San Pedro,-24.09,-57.08,,,,,,,,,
Paraguay,Ype Jhu,-23.91,-55.46,,,,,,,,,
Paraguay,Filadelfia,-22.34,-60.03,,,,,,,,,
Paraguay,Salto del Guairá,-24.0625,-54.3069,,,,,,,,,
Paraguay,Asunción,-25.2964,-57.6415,,,,,,,,,
Paraguay,Puerto Pinasco,-22.64,-57.79,,,,,,,,,
Paraguay,San Lorenzo,-25.34,-57.52,,,,,,,,,
Paraguay,Itá,-25.5096,-57.36,,,,,,,,,
Paraguay,Hohenau,-27.0795,-55.75,,,,,,,,,
Paraguay,Ypacaraí,-25.41,-57.28,,,,,,,,,
Paraguay,Rosario,-24.4196,-57.1,,,,,,,,,
Paraguay,Coronel Bogado,-27.17,-56.25,,,,,,,,,
Paraguay,Ygatimí,-24.0796,-55.5,,,,,,,,,
Paraguay,Arroyos y Esteros,-25.05,-57.09,,,,,,,,,
Qatar,Az̧ Z̧a‘āyin,25.5774,51.4831,,,,,,,,,
Qatar,Al Wakrah,25.1715,51.6034,,,,,,,,,
Qatar,Al Khawr,25.6839,51.5058,,,,,,,,,
Qatar,Madīnat ash Shamāl,26.1293,51.2009,,,,,,,,,
Qatar,Umm Şalāl ‘Alī,25.4697,51.3975,,,,,,,,,
Qatar,Ar Rayyān,25.2919,51.4244,,,,,,,,,
Qatar,Doha,25.2866,51.533,,,,,,,,,
Qatar,Ash Shīḩānīyah,25.3709,51.2226,,,,,,,,,
Reunion,St.-Denis,-20.8789,55.4481,,,,,,,,,
Reunion,St.-Benoit,-21.0335,55.7128,,,,,,,,,
Romania,Drobeta-Turnu Severin,44.6459,22.6659,,,,,,,,,
Romania,Brăila,45.292,27.969,,,,,,,,,
Romania,Oradea,47.05,21.92,,,,,,,,,
Romania,Timișoara,45.7588,21.2234,,,,,,,,,
Romania,Reșița,45.297,21.8865,,,,,,,,,
Romania,Călărași,44.2063,27.3259,,,,,,,,,
Romania,Arad,46.17,21.32,,,,,,,,,
Romania,Alexandria,43.9016,25.2867,,,,,,,,,
Romania,Slobozia,44.57,27.382,,,,,,,,,
Romania,Baia Mare,47.6595,23.5791,,,,,,,,,
Romania,Tulcea,45.1993,28.7967,,,,,,,,,
Romania,Ploiești,44.9469,26.0365,,,,,,,,,
Romania,Piatra-Neamt,46.94,26.383,,,,,,,,,
Romania,Suceava,47.6377,26.2593,,,,,,,,,
Romania,Botoșani,47.7484,26.6597,,,,,,,,,
Romania,Constanța,44.2027,28.61,,,,,,,,,
Romania,Buzău,45.1565,26.8065,,,,,,,,,
Romania,Galați,45.4559,28.0459,,,,,,,,,
Romania,Vaslui,46.6333,27.7333,,,,,,,,,
Romania,Sfintu-Gheorghe,45.868,25.793,,,,,,,,,
Romania,Bacău,46.5784,26.9196,,,,,,,,,
Romania,Focșani,45.6966,27.1865,,,,,,,,,
Romania,Bucharest,44.4334,26.0999,,,,,,,,,
Romania,Brașov,45.6475,25.6072,,,,,,,,,
Romania,Pitești,44.8563,24.8758,,,,,,,,,
Romania,Tirgu Mures,46.5582,24.5578,,,,,,,,,
Romania,Deva,45.8833,22.9167,,,,,,,,,
Romania,Cluj-Napoca,46.7884,23.5984,,,,,,,,,
Romania,Rimnicu Vilcea,45.11,24.383,,,,,,,,,
Romania,Sibiu,45.7971,24.1371,,,,,,,,,
Romania,Târgu Jiu,45.045,23.274,,,,,,,,,
Romania,Alba Lulia,46.077,23.58,,,,,,,,,
Romania,Giurgiu,43.93,25.84,,,,,,,,,
Romania,Zalău,47.175,23.063,,,,,,,,,
Romania,Craiova,44.3263,23.8259,,,,,,,,,
Romania,Hunedoara,45.75,22.9,,,,,,,,,
Romania,Târgoviște,44.938,25.459,,,,,,,,,
Romania,Bistrița,47.138,24.513,,,,,,,,,
Romania,Satu Mare,47.792,22.885,,,,,,,,,
Romania,Slatina,44.435,24.371,,,,,,,,,
Romania,Miercurea Cuic,46.361,25.524,,,,,,,,,
Romania,Iași,47.1683,27.5749,,,,,,,,,
Serbia,Belgrade,44.8186,20.468,,,,,,,,,
Serbia,Aranđelovac,44.3077,20.5612,,,,,,,,,
Serbia,Bela Palanka,43.2196,22.314,,,,,,,,,
Serbia,Gadžin Han,43.2223,22.0333,,,,,,,,,
Serbia,Niš,43.3304,21.9,,,,,,,,,
Serbia,Svrljig,43.4129,22.1252,,,,,,,,,
Serbia,Sokobanja,43.6453,21.8692,,,,,,,,,
Serbia,Boljevac,43.8321,21.9609,,,,,,,,,
Serbia,Zaječar,43.9019,22.2755,,,,,,,,,
Serbia,Bor,44.0819,22.0967,,,,,,,,,
Serbia,Negotin,44.2264,22.5308,,,,,,,,,
Serbia,Kladovo,44.6073,22.6155,,,,,,,,,
Serbia,Majdanpek,44.4228,21.9358,,,,,,,,,
Serbia,Golubac,44.6529,21.6308,,,,,,,,,
Serbia,Kučevo,44.4767,21.6712,,,,,,,,,
Serbia,Žagubica,44.1979,21.7902,,,,,,,,,
Serbia,Petrovac na Mlavi,44.3773,21.4198,,,,,,,,,
Serbia,Despotovac,44.0932,21.444,,,,,,,,,
Serbia,Svilajnac,44.2383,21.197,,,,,,,,,
Serbia,Doljevac,43.1968,21.8334,,,,,,,,,
Serbia,Merošina,43.2813,21.7218,,,,,,,,,
Serbia,Aleksinac,43.5417,21.7078,,,,,,,,,
Serbia,Blace,43.297,21.2727,,,,,,,,,
Serbia,Brus,43.3846,21.0289,,,,,,,,,
Serbia,Kruševac,43.581,21.3352,,,,,,,,,
Serbia,Aleksandrovac,43.4609,21.0539,,,,,,,,,
Serbia,Vrnjačka Banja,43.6223,20.8956,,,,,,,,,
Serbia,Trstenik,43.6169,21.0025,,,,,,,,,
Serbia,Varvarin,43.7195,21.3712,,,,,,,,,
Serbia,Ćićevac,43.72,21.4436,,,,,,,,,
Serbia,Ražanj,43.6744,21.5492,,,,,,,,,
Serbia,Paraćin,43.8592,21.4119,,,,,,,,,
Serbia,Ćuprija,43.9284,21.3745,,,,,,,,,
Serbia,Jagodina,43.9791,21.2583,,,,,,,,,
Serbia,Rekovac,43.8609,21.0958,,,,,,,,,
Serbia,Ada,45.8027,20.1285,,,,,,,,,
Serbia,Alibunar,45.0789,20.9682,,,,,,,,,
Serbia,Apatin,45.6709,18.9843,,,,,,,,,
Serbia,Prijepolje,43.3903,19.6506,,,,,,,,,
Serbia,Rača,44.2268,20.979,,,,,,,,,
Serbia,Raška,43.2859,20.6135,,,,,,,,,
Serbia,Ruma,45.0079,19.8171,,,,,,,,,
Serbia,Senta,45.9273,20.0789,,,,,,,,,
Serbia,Sečanj,45.3676,20.7732,,,,,,,,,
Serbia,Sjenica,43.2735,20.0004,,,,,,,,,
Serbia,Smederevo,44.6516,20.9258,,,,,,,,,
Serbia,Smederevska Palanka,44.3654,20.9623,,,,,,,,,
Serbia,Sombor,45.7742,19.1151,,,,,,,,,
Serbia,Srbobran,45.5481,19.7954,,,,,,,,,
Serbia,Sremska Mitrovica,44.9764,19.6122,,,,,,,,,
Serbia,Sremski Karlovci,45.2021,19.9325,,,,,,,,,
Serbia,Stara Pazova,44.9861,20.1597,,,,,,,,,
Serbia,Subotica,46.07,19.68,,,,,,,,,
Serbia,Temerin,45.4095,19.8911,,,,,,,,,
Serbia,Titel,45.206,20.2949,,,,,,,,,
Serbia,Topola,44.2544,20.6824,,,,,,,,,
Serbia,Tutin,42.99,20.3334,,,,,,,,,
Serbia,Ub,44.4572,20.0762,,,,,,,,,
Serbia,Užice,43.8582,19.8441,,,,,,,,,
Serbia,Valjevo,44.272,19.8874,,,,,,,,,
Serbia,Veliko Gradište,44.7638,21.5163,,,,,,,,,
Serbia,Vladimirci,44.6158,19.7843,,,,,,,,,
Serbia,Vrbas,45.5704,19.6479,,,,,,,,,
Serbia,Vršac,45.1175,21.2983,,,,,,,,,
Serbia,Zrenjanin,45.3786,20.3995,,,,,,,,,
Serbia,Gornji Milanovac,44.0245,20.4586,,,,,,,,,
Serbia,Inđija,45.0482,20.0816,,,,,,,,,
Serbia,Irig,45.1001,19.8603,,,,,,,,,
Serbia,Ivanjica,43.582,20.2284,,,,,,,,,
Serbia,Kanjiža,46.0635,20.0504,,,,,,,,,
Serbia,Kikinda,45.8323,20.4682,,,,,,,,,
Serbia,Knić,43.927,20.7197,,,,,,,,,
Serbia,Koceljeva,44.4687,19.8214,,,,,,,,,
Serbia,Kosjerić,43.9987,19.9079,,,,,,,,,
Serbia,Kovačica,45.1109,20.6236,,,,,,,,,
Serbia,Kovin,44.7482,20.9766,,,,,,,,,
Serbia,Kragujevac,44.02,20.92,,,,,,,,,
Serbia,Kraljevo,43.7259,20.6896,,,,,,,,,
Serbia,Krupanj,44.3676,19.3633,,,,,,,,,
Serbia,Kula,45.6109,19.5274,,,,,,,,,
Serbia,Lajkovac,44.37,20.1644,,,,,,,,,
Serbia,Lapovo,44.1877,21.0969,,,,,,,,,
Serbia,Ljig,44.2266,20.2394,,,,,,,,,
Serbia,Ljubovija,44.1896,19.3785,,,,,,,,,
Serbia,Loznica,44.5312,19.2427,,,,,,,,,
Serbia,Lučani,43.8608,20.1384,,,,,,,,,
Serbia,Mali Iđoš,45.7092,19.6663,,,,,,,,,
Serbia,Mali Zvornik,44.3992,19.1214,,,,,,,,,
Serbia,Malo Crniće,44.5603,21.2906,,,,,,,,,
Serbia,Mionica,44.2524,20.0817,,,,,,,,,
Serbia,Nova Crnja,45.6685,20.6042,,,,,,,,,
Serbia,Nova Varoš,43.46,19.8117,,,,,,,,,
Serbia,Novi Bečej,45.6015,20.1364,,,,,,,,,
Serbia,Novi Kneževac,46.041,20.0958,,,,,,,,,
Serbia,Novi Pazar,43.1375,20.5149,,,,,,,,,
Serbia,Novi Sad,45.2504,19.8499,,,,,,,,,
Serbia,Odžaci,45.5076,19.2606,,,,,,,,,
Serbia,Opovo,45.0522,20.4313,,,,,,,,,
Serbia,Osečina,44.3728,19.601,,,,,,,,,
Serbia,Pančevo,44.8713,20.6443,,,,,,,,,
Serbia,Pećinci,44.9089,19.9664,,,,,,,,,
Serbia,Plandište,45.2292,21.1238,,,,,,,,,
Serbia,Požarevac,44.6222,21.1826,,,,,,,,,
Serbia,Požega,43.8459,20.0368,,,,,,,,,
Serbia,Priboj,43.5836,19.5258,,,,,,,,,
Serbia,Šid,45.1276,19.2267,,,,,,,,,
Serbia,Šabac,44.7538,19.6876,,,,,,,,,
Serbia,Arilje,43.755,20.097,,,,,,,,,
Serbia,Bajina Bašta,43.9709,19.5655,,,,,,,,,
Serbia,Batočina,44.1547,21.0799,,,,,,,,,
Serbia,Bač,45.3923,19.2367,,,,,,,,,
Serbia,Bačka Palanka,45.2519,19.3916,,,,,,,,,
Serbia,Bačka Topola,45.8152,19.6369,,,,,,,,,
Serbia,Bački Petrovac,45.3616,19.592,,,,,,,,,
Serbia,Bela Crkva,44.9015,21.4234,,,,,,,,,
Serbia,Bečej,45.6196,20.04,,,,,,,,,
Serbia,Bogatić,44.8376,19.4807,,,,,,,,,
Serbia,Žitište,45.4854,20.5507,,,,,,,,,
Serbia,Žabari,44.3562,21.2143,,,,,,,,,
Serbia,Žabalj,45.3741,20.0707,,,,,,,,,
Serbia,Čoka,45.9415,20.146,,,,,,,,,
Serbia,Čačak,43.8897,20.3301,,,,,,,,,
Serbia,Trgovište,42.3514,22.0921,,,,,,,,,
Serbia,Vranje,42.556,21.9002,,,,,,,,,
Serbia,Bujanovac,42.4606,21.7666,,,,,,,,,
Serbia,Preševo,42.3071,21.65,,,,,,,,,
Serbia,Bosilegrad,42.5005,22.4728,,,,,,,,,
Serbia,Surdulica,42.6904,22.1704,,,,,,,,,
Serbia,Vladičin Han,42.7082,22.0664,,,,,,,,,
Serbia,Crna Trava,42.8071,22.3247,,,,,,,,,
Serbia,Vlasotince,42.9659,22.1272,,,,,,,,,
Serbia,Žitorađa,43.1902,21.7134,,,,,,,,,
Serbia,Prokuplje,43.2383,21.5932,,,,,,,,,
Serbia,Babušnica,43.068,22.4115,,,,,,,,,
Serbia,Dimitrovgrad,43.0155,22.7776,,,,,,,,,
Serbia,Pirot,43.1617,22.5871,,,,,,,,,
Serbia,Knjaževac,43.5667,22.2539,,,,,,,,,
Serbia,Kuršumlija,43.139,21.2735,,,,,,,,,
Serbia,Medveđa,42.842,21.5858,,,,,,,,,
Serbia,Bojnik,43.0142,21.718,,,,,,,,,
Serbia,Lebane,42.9171,21.7294,,,,,,,,,
Serbia,Leskovac,42.9976,21.9445,,,,,,,,,
Serbia,Čajetina,43.7497,19.715,,,,,,,,,
Serbia,Velika Plana,44.3323,21.0751,,,,,,,,,
Serbia,Beočin,45.1916,19.725,,,,,,,,,
Russia,Volgodonsk,47.51,42.1599,,,,,,,,,
Russia,Saskylakh,71.9166,114.0833,,,,,,,,,
Russia,Polevskoy,56.4434,60.188,,,,,,,,,
Russia,Saranpaul,64.2505,60.97,,,,,,,,,
Russia,Severnyy,67.6083,64.1233,,,,,,,,,
Russia,Pervouralsk,56.91,59.955,,,,,,,,,
Russia,Novy Port,67.6983,72.9283,,,,,,,,,
Russia,Pugachev,52.0148,48.7944,,,,,,,,,
Russia,Numto,63.6667,71.3333,,,,,,,,,
Russia,Novy Urengoy,66.0833,76.6332,,,,,,,,,
Russia,Novyy Uoyin,56.135,111.7339,,,,,,,,,
Russia,Nizhny Novgorod,56.333,44.0001,,,,,,,,,
Russia,Miass,54.9954,60.0949,,,,,,,,,
Russia,Omsk,54.99,73.4,,,,,,,,,
Russia,Naltchik,43.4981,43.6179,,,,,,,,,
Russia,Mirnyy,62.54,113.9614,,,,,,,,,
Russia,Monchegorsk,67.9291,32.8287,,,,,,,,,
Russia,Nyagan,62.1465,65.3814,,,,,,,,,
Russia,Maykop,44.61,40.12,,,,,,,,,
Russia,Kirensk,57.7857,108.1119,,,,,,,,,
Russia,Kolpino,59.73,30.65,,,,,,,,,
Russia,Khorgo,73.4833,113.63,,,,,,,,,
Russia,Kislovodsk,43.91,42.72,,,,,,,,,
Russia,Guryevsk,54.2981,85.9377,,,,,,,,,
Russia,Ivdel,60.6936,60.4133,,,,,,,,,
Russia,Gusinoozyorsk,51.2808,106.5004,,,,,,,,,
Russia,Kamenka,53.1947,44.0444,,,,,,,,,
Russia,Kargat,55.1959,80.2811,,,,,,,,,
Russia,Kasimov,54.9435,41.3931,,,,,,,,,
Russia,Kolomna,55.08,38.785,,,,,,,,,
Russia,Khanty Mansiysk,61.0015,69.0015,,,,,,,,,
Russia,Dimitrovgrad,54.2504,49.56,,,,,,,,,
Russia,Cheremkhovo,53.1588,103.0739,,,,,,,,,
Russia,Gornyak,50.9881,81.4877,,,,,,,,,
Russia,Blagodarnyy,45.1047,43.4344,,,,,,,,,
Russia,Bodaybo,57.965,114.329,,,,,,,,,
Russia,Biysk,52.5341,85.18,,,,,,,,,
Russia,Abakan,53.7037,91.445,,,,,,,,,
Russia,Angarsk,52.56,103.92,,,,,,,,,
Russia,Birsk,55.4244,55.5444,,,,,,,,,
Russia,Pskov,57.83,28.3299,,,,,,,,,
Russia,Smolensk,54.7827,32.0473,,,,,,,,,
Russia,Put Lenina,68.5166,107.8,,,,,,,,,
Russia,Kemerovo,55.34,86.09,,,,,,,,,
Russia,Kolpashevo,58.3004,82.9954,,,,,,,,,
Russia,Polyarnyy,69.2052,33.4502,,,,,,,,,
Russia,St. Petersburg,59.939,30.316,,,,,,,,,
Russia,Pyatigorsk,44.08,43.09,,,,,,,,,
Russia,Nefteyugansk,61.0777,72.7027,,,,,,,,,
Russia,Chernogorsk,53.8313,91.2227,,,,,,,,,
Russia,Lensk,60.7253,114.947,,,,,,,,,
Russia,Krasnoarmeysk,51.0174,45.6974,,,,,,,,,
Russia,Saratov,51.58,46.03,,,,,,,,,
Russia,Shira,54.4914,89.9531,,,,,,,,,
Russia,Solnechnogorsk,56.1807,36.9809,,,,,,,,,
Russia,Irkutsk,52.32,104.245,,,,,,,,,
Russia,Noyabrsk,63.1665,75.6165,,,,,,,,,
Russia,Yurga,55.7258,84.8854,,,,,,,,,
Russia,Zelenokumsk,44.4091,43.8787,,,,,,,,,
Russia,Olenek,68.525,112.45,,,,,,,,,
Russia,Salekhard,66.535,66.61,,,,,,,,,
Russia,Borovichi,58.3978,33.8974,,,,,,,,,
Russia,Kaluga,54.5204,36.27,,,,,,,,,
Russia,Izhevsk,56.85,53.23,,,,,,,,,
Russia,Volsk,52.0347,47.3743,,,,,,,,,
Russia,Cherepovets,59.1404,37.91,,,,,,,,,
Russia,Pallasovka,50.0477,46.8773,,,,,,,,,
Russia,Peregrebnoye,62.967,65.0859,,,,,,,,,
Russia,Tyumen,57.14,65.53,,,,,,,,,
Russia,Toguchin,55.2377,84.3777,,,,,,,,,
Russia,Nadym,65.5298,72.5148,,,,,,,,,
Russia,Matochkin Shar,73.27,56.4497,,,,,,,,,
Russia,Kurtamysh,54.9087,64.4333,,,,,,,,,
Russia,Barnaul,53.355,83.745,,,,,,,,,
Russia,Kimry,56.8691,37.3444,,,,,,,,,
Russia,Elista,46.3287,44.2087,,,,,,,,,
Russia,Gorno Altaysk,51.9613,85.9577,,,,,,,,,
Russia,Surgut,61.2599,73.425,,,,,,,,,
Russia,Cheboksary,56.13,47.25,,,,,,,,,
Russia,Mariinsk,56.2108,87.7604,,,,,,,,,
Russia,Safonovo,55.1465,33.2161,,,,,,,,,
Russia,Sayanogorsk,53.0894,91.4004,,,,,,,,,
Russia,Roslavl,53.9509,32.8604,,,,,,,,,
Russia,Rubtsovsk,51.52,81.21,,,,,,,,,
Russia,Slyudyanka,51.6538,103.6988,,,,,,,,,
Russia,Laryak,61.1012,80.2514,,,,,,,,,
Russia,Abaza,52.669,90.0954,,,,,,,,,
Russia,Velikiy Novgorod,58.5,31.33,,,,,,,,,
Russia,Klin,56.3431,36.6987,,,,,,,,,
Russia,Bagdarin,54.4333,113.6,,,,,,,,,
Russia,Kovrov,56.3604,41.33,,,,,,,,,
Russia,Sokol,59.4648,40.1144,,,,,,,,,
Russia,Engels,51.5004,46.12,,,,,,,,,
Russia,Gatchina,59.5707,30.1333,,,,,,,,,
Russia,Nizhnyaya Tura,58.6436,59.7983,,,,,,,,,
Russia,Mundybash,53.2333,87.3167,,,,,,,,,
Russia,Prokopyevsk,53.9,86.71,,,,,,,,,
Russia,Kiselevsk,54,86.64,,,,,,,,,
Russia,Novokuznetsk,53.75,87.115,,,,,,,,,
Russia,Luga,58.7363,29.839,,,,,,,,,
Russia,Moscow,55.7522,37.6155,,,,,,,,,
Russia,Slavgorod,53.0049,78.6696,,,,,,,,,
Russia,Kulunda,52.5827,78.9473,,,,,,,,,
Russia,Krasnoturinsk,59.7948,60.4848,,,,,,,,,
Russia,Vladikavkaz,43.0504,44.67,,,,,,,,,
Russia,Amderma,69.763,61.6677,,,,,,,,,
Russia,Varnek,69.7301,60.0636,,,,,,,,,
Russia,Leninsk Kuznetsky,54.66,86.17,,,,,,,,,
Russia,Mozdok,43.7543,44.6544,,,,,,,,,
Russia,Tashtagol,52.7918,87.8677,,,,,,,,,
Russia,Megion,61.0608,76.0953,,,,,,,,,
Russia,Balashov,51.5535,43.1631,,,,,,,,,
Russia,Zima,53.9331,102.0331,,,,,,,,,
Russia,Samara,53.195,50.1513,,,,,,,,,
Russia,Vyazma,55.2122,34.2918,,,,,,,,,
Russia,Igrim,63.1933,64.4194,,,,,,,,,
Russia,Norilsk,69.34,88.225,,,,,,,,,
Russia,Belebey,54.1291,54.1187,,,,,,,,,
Russia,Kalachinsk,55.0487,74.5683,,,,,,,,,
Russia,Vologda,59.21,39.92,,,,,,,,,
Russia,Orenburg,51.78,55.11,,,,,,,,,
Russia,Vyborg,60.7039,28.7549,,,,,,,,,
Russia,Svetogorsk,61.1013,28.9177,,,,,,,,,
Russia,Cherlak,54.1605,74.82,,,,,,,,,
Russia,Mezen,65.8522,44.24,,,,,,,,,
Russia,Buzuluk,52.7821,52.2618,,,,,,,,,
Russia,Kupina,54.3592,77.2742,,,,,,,,,
Russia,Karasuk,53.7273,78.0219,,,,,,,,,
Russia,Saransk,54.1704,45.18,,,,,,,,,
Russia,Barabinsk,55.3573,78.3519,,,,,,,,,
Russia,Bukachacha,52.9833,116.9166,,,,,,,,,
Russia,Alatyr,54.8504,46.6,,,,,,,,,
Russia,Shilka,51.8706,116.0306,,,,,,,,,
Russia,Sherlovaya Gora,50.5306,116.3006,,,,,,,,,
Russia,Nerchinsk,52.009,116.5486,,,,,,,,,
Russia,Olovyannaya,50.95,115.5666,,,,,,,,,
Russia,Borzya,50.3886,116.5186,,,,,,,,,
Russia,Bugulma,54.5543,52.7943,,,,,,,,,
Russia,Strezhevoy,60.7332,77.5777,,,,,,,,,
Russia,Nizhenvartovsk,60.935,76.58,,,,,,,,,
Russia,Anzhero Sudzhensk,56.08,86.04,,,,,,,,,
Russia,Rayevskiy,54.0674,54.9269,,,,,,,,,
Russia,Chita,52.055,113.465,,,,,,,,,
Russia,Artemovskiy,57.3652,61.8698,,,,,,,,,
Russia,Ryazan,54.62,39.72,,,,,,,,,
Russia,Bezhetsk,57.7647,36.69,,,,,,,,,
Russia,Novomoskovsk,54.09,38.22,,,,,,,,,
Russia,Zheleznogorsk,52.3548,35.4044,,,,,,,,,
Russia,Alapayevsk,57.8465,61.6915,,,,,,,,,
Russia,Starsy Oskol,51.3004,37.84,,,,,,,,,
Russia,Rostov,57.1892,39.4043,,,,,,,,,
Russia,Gubkin,51.2743,37.3843,,,,,,,,,
Russia,Kumertau,52.7748,55.7843,,,,,,,,,
Russia,Oktyabrskiy,54.46,53.46,,,,,,,,,
Russia,Zheleznogorsk Ilimskiy,56.5762,104.1227,,,,,,,,,
Russia,Noginsk,55.8704,38.48,,,,,,,,,
Russia,Staraya Russa,57.9948,31.3544,,,,,,,,,
Russia,Tikhvin,59.6448,33.5144,,,,,,,,,
Russia,Asbest,57.023,61.458,,,,,,,,,
Russia,Yoshkar Ola,56.6354,47.8749,,,,,,,,,
Russia,Ufa,54.79,56.04,,,,,,,,,
Russia,Krasnokamensk,50.0665,118.0265,,,,,,,,,
Russia,Orsk,51.21,58.6273,,,,,,,,,
Russia,Novotroitsk,51.2,58.33,,,,,,,,,
Russia,Bologoye,57.8722,34.0518,,,,,,,,,
Russia,Mikhaylovka,50.0679,43.2175,,,,,,,,,
Russia,Novozybkov,52.5348,31.9449,,,,,,,,,
Russia,Chapayevsk,52.9743,49.7243,,,,,,,,,
Russia,Novokuybishevsk,53.12,49.9199,,,,,,,,,
Russia,Tavda,58.0537,65.2583,,,,,,,,,
Russia,Michurinsk,52.9,40.5,,,,,,,,,
Russia,Serov,59.615,60.585,,,,,,,,,
Russia,Alekseyevka,50.6535,38.6931,,,,,,,,,
Russia,Valuyki,50.2091,38.0987,,,,,,,,,
Russia,Tuymazy,54.6048,53.6943,,,,,,,,,
Russia,Lgov,51.6948,35.2744,,,,,,,,,
Russia,Rybinsk,58.0503,38.82,,,,,,,,,
Russia,Uglich,57.5244,38.33,,,,,,,,,
Russia,Slantsy,59.1116,28.0747,,,,,,,,,
Russia,Vyska,55.3247,42.1644,,,,,,,,,
Russia,Armavir,45.0004,41.13,,,,,,,,,
Russia,Stavropol,45.05,41.98,,,,,,,,,
Russia,Bryansk,53.26,34.43,,,,,,,,,
Russia,Kropotkin,45.4471,40.5821,,,,,,,,,
Russia,Shchekino,54.0143,37.5143,,,,,,,,,
Russia,Derbent,42.0578,48.2774,,,,,,,,,
Russia,Nikolayevsk,50.0161,45.4261,,,,,,,,,
Russia,Tula,54.2,37.6299,,,,,,,,,
Russia,Murom,55.5704,42.04,,,,,,,,,
Russia,Plast,54.3685,60.8085,,,,,,,,,
Russia,Kamyshin,50.0804,45.4,,,,,,,,,
Russia,Syzran,53.17,48.48,,,,,,,,,
Russia,Kuznetsk,53.1204,46.6,,,,,,,,,
Russia,Gelendzhik,44.5748,38.0644,,,,,,,,,
Russia,Sharya,58.3798,45.5094,,,,,,,,,
Russia,Murmansk,68.97,33.1,,,,,,,,,
Russia,Isikul,54.9287,71.2682,,,,,,,,,
Russia,Frolovo,49.7722,43.6518,,,,,,,,,
Russia,Severomorsk,69.0731,33.4231,,,,,,,,,
Russia,Dzerzhinsk,56.2504,43.46,,,,,,,,,
Russia,Yalutorovsk,56.6736,66.2983,,,,,,,,,
Russia,Uryupinsk,50.7734,42.0031,,,,,,,,,
Russia,Golyshmanovo,56.3819,68.3715,,,,,,,,,
Russia,Nazyvayevsk,55.567,71.35,,,,,,,,,
Russia,Tatarsk,55.2219,75.9665,,,,,,,,,
Russia,Sarapul,56.4791,53.7987,,,,,,,,,
Russia,Tayshet,55.9277,97.9877,,,,,,,,,
Russia,Nevinnomyssk,44.6201,41.95,,,,,,,,,
Russia,Velikiye Luki,56.32,30.52,,,,,,,,,
Russia,Nizhnekamsk,55.6404,51.82,,,,,,,,,
Russia,Kirov,54.0852,34.3048,,,,,,,,,
Russia,Dyatkovo,53.5891,34.3392,,,,,,,,,
Russia,Tara,56.8982,74.3782,,,,,,,,,
Russia,Borisoglebsk,51.3687,42.0887,,,,,,,,,
Russia,Klintsy,52.7652,32.2448,,,,,,,,,
Russia,Mozhga,56.4548,52.1843,,,,,,,,,
Russia,Rzhev,56.2574,34.3275,,,,,,,,,
Russia,Naberezhnyye Chelny,55.7,52.3199,,,,,,,,,
Russia,Vichuga,57.2191,41.9287,,,,,,,,,
Russia,Mtsensk,53.2647,36.5472,,,,,,,,,
Russia,Kanash,55.5091,47.4687,,,,,,,,,
Russia,Topki,55.2802,85.6108,,,,,,,,,
Russia,Shuya,56.8543,41.3643,,,,,,,,,
Russia,Torzhok,57.0291,34.9787,,,,,,,,,
Russia,Biryusinsk,55.9607,97.8144,,,,,,,,,
Russia,Otradnyy,53.3778,51.3474,,,,,,,,,
Russia,Serpukhov,54.9304,37.43,,,,,,,,,
Russia,Balakovo,52.03,47.8,,,,,,,,,
Russia,Atkarsk,51.8765,44.9961,,,,,,,,,
Russia,Kirovo-Chepetsk,58.5544,50.0444,,,,,,,,,
Russia,Kirov,58.5901,49.67,,,,,,,,,
Russia,Serdobsk,52.4622,44.2218,,,,,,,,,
Russia,Aleksin,54.5143,37.0944,,,,,,,,,
Russia,Shumerlya,55.4848,46.4244,,,,,,,,,
Russia,Yefremov,53.1491,38.1215,,,,,,,,,
Russia,Buynaksk,42.8335,47.113,,,,,,,,,
Russia,Makhachkala,42.98,47.5,,,,,,,,,
Russia,Yaroslavl,57.62,39.87,,,,,,,,,
Russia,Sovetsk,57.5785,48.9581,,,,,,,,,
Russia,Salavat,53.3703,55.93,,,,,,,,,
Russia,Sterlitamak,53.63,55.96,,,,,,,,,
Russia,Bogoroditsk,53.7747,38.1144,,,,,,,,,
Russia,Morshansk,53.4547,41.8044,,,,,,,,,
Russia,Obninsk,55.0804,36.62,,,,,,,,,
Russia,Georgievsk,44.1599,43.4699,,,,,,,,,
Russia,Sol-lletsk,51.1603,54.9999,,,,,,,,,
Russia,Vladimir,56.13,40.4099,,,,,,,,,
Russia,Pechora,65.1587,57.2087,,,,,,,,,
Russia,Ulyanovsk,54.33,48.41,,,,,,,,,
Russia,Kirsanov,52.6574,42.7174,,,,,,,,,
Russia,Kotovsk,52.5947,41.5044,,,,,,,,,
Russia,Tambov,52.73,41.43,,,,,,,,,
Russia,Volkhov,59.9291,32.3387,,,,,,,,,
Russia,Vyshnniy Volochek,57.583,34.5631,,,,,,,,,
Russia,Orel,52.97,36.07,,,,,,,,,
Russia,Kandalaksha,67.1643,32.4144,,,,,,,,,
Russia,Ussuriysk,43.8,132.02,,,,,,,,,
Russia,Petrozavodsk,61.85,34.28,,,,,,,,,
Russia,Votkinsk,57.0304,53.99,,,,,,,,,
Russia,Omutninsk,58.6589,52.1592,,,,,,,,,
Russia,Novoaltaysk,53.3993,83.9588,,,,,,,,,
Russia,Ust' Ordynskiy,52.833,104.7,,,,,,,,,
Russia,Kirs,59.3138,52.2452,,,,,,,,,
Russia,Kondopoga,62.2087,34.2887,,,,,,,,,
Russia,Ruzayevka,54.0643,44.9244,,,,,,,,,
Russia,Tver,56.86,35.89,,,,,,,,,
Russia,Kotelnich,58.3041,48.3137,,,,,,,,,
Russia,Kaliningrad,54.7,20.4973,,,,,,,,,
Russia,Perm’,58.0174,56.2855,,,,,,,,,
Russia,Penza,53.18,45,,,,,,,,,
Russia,Velikiy Ustyug,60.7687,46.2987,,,,,,,,,
Russia,Aleysk,52.4918,82.7777,,,,,,,,,
Russia,Balakhna,56.4943,43.5944,,,,,,,,,
Russia,Podolsk,55.3804,37.5299,,,,,,,,,
Russia,Kineshma,57.47,42.13,,,,,,,,,
Russia,Yegoryevsk,55.3848,39.0294,,,,,,,,,
Russia,Volzhskiy,48.7948,44.7744,,,,,,,,,
Russia,Volgograd,48.71,44.5,,,,,,,,,
Russia,Onega,63.9271,38.0771,,,,,,,,,
Russia,Cherepanovo,54.2336,83.3688,,,,,,,,,
Russia,Apatity,67.5731,33.393,,,,,,,,,
Russia,Umba,66.6814,34.3455,,,,,,,,,
Russia,Kovda,66.6903,32.8702,,,,,,,,,
Russia,Kirovsk,67.6091,33.6687,,,,,,,,,
Russia,Iskitim,54.6509,83.2865,,,,,,,,,
Russia,Belgorod,50.63,36.5999,,,,,,,,,
Russia,Taganrog,47.23,38.92,,,,,,,,,
Russia,Velsk,61.0674,42.0974,,,,,,,,,
Russia,Sasovo,54.3491,41.9087,,,,,,,,,
Russia,Voronezh,51.73,39.27,,,,,,,,,
Russia,Syktyvkar,61.66,50.82,,,,,,,,,
Russia,Krasnoufimsk,56.5991,57.7586,,,,,,,,,
Russia,Lipetsk,52.62,39.64,,,,,,,,,
Russia,Yelets,52.58,38.5,,,,,,,,,
Russia,Ust Kut,56.765,105.76,,,,,,,,,
Russia,Magnitogorsk,53.4227,58.98,,,,,,,,,
